"id","name","lon","lat","type"
8506013,"Aadorf",8.90329,47.48812,"Zug"
8573363,"Aadorf, Bahnhof",8.90273,47.48845,"Bus"
8576958,"Aadorf, Matthofstrasse",8.90461,47.48517,"Bus"
8506853,"Aadorf, Morgental",8.89618,47.49397,"Bus"
8573362,"Aadorf, Zentrum",8.89941,47.49107,"Bus"
8502113,"Aarau",8.05128,47.39135,"Zug"
8590257,"Aarau Rohr, Gemeindehaus",8.08493,47.40338,"Bus"
8590258,"Aarau Rohr, Quellhölzli",8.07507,47.40035,"Bus"
8590259,"Aarau Rohr, Rigistrasse",8.08059,47.40204,"Bus"
8590260,"Aarau Rohr, Salamatt",8.07214,47.39852,"Bus"
8590261,"Aarau Rohr, Unterdorf",8.08792,47.40444,"Bus"
8519685,"Aarau Torfeld",8.06265,47.39356,"Zug"
8594390,"Aarau, Aarenau",8.04914,47.40155,"Bus"
8572388,"Aarau, Aarepark",8.04133,47.39633,"Bus"
8588428,"Aarau, Achenbergstrasse",8.04608,47.39927,"Bus"
8590132,"Aarau, Allmendweg",8.03767,47.39195,"Bus"
8578645,"Aarau, Alte Badanstalt",8.03126,47.39541,"Bus"
8594929,"Aarau, Amtshaus",8.04651,47.39364,"Bus"
8502996,"Aarau, Bahnhof",8.05101,47.39186,"Bus"
8590133,"Aarau, Bavaria",8.06313,47.3903,"Bus"
8590134,"Aarau, Berufsschule",8.05504,47.39703,"Bus"
8510263,"Aarau, Binzenhof",8.05069,47.38314,"Bus"
8590135,"Aarau, Binzenhofstrasse",8.04783,47.38111,"Bus"
8590136,"Aarau, Buchenhof",8.05071,47.38754,"Bus"
8590137,"Aarau, Dammweg",8.03377,47.38591,"Bus"
8590138,"Aarau, Delfterstrasse",8.06228,47.39876,"Bus"
8590139,"Aarau, Dossenstrasse",8.04622,47.38283,"Bus"
8590140,"Aarau, Dufourstrasse",8.05251,47.38506,"Bus"
8590141,"Aarau, Friedhof",8.0468,47.38863,"Bus"
8590142,"Aarau, Gais",8.05782,47.39163,"Bus"
8590143,"Aarau, General Guisanstrasse",8.05543,47.3784,"Bus"
8590144,"Aarau, Hans Hässigstrasse",8.0506,47.38038,"Bus"
8590145,"Aarau, Heinerich-Wirri-Strasse",8.05391,47.38345,"Bus"
8590146,"Aarau, Herzogplatz",8.05559,47.38736,"Bus"
8511039,"Aarau, Hintere Bahnhofstrasse",8.05632,47.39126,"Bus"
8590147,"Aarau, Hirslanden Klinik",8.04188,47.39132,"Bus"
8578643,"Aarau, Holzmarkt",8.04553,47.39212,"Bus"
8590148,"Aarau, Ifang",8.03929,47.3881,"Bus"
8590154,"Aarau, Kantonsspital",8.06073,47.38739,"Bus"
8590150,"Aarau, Keba/Brügglifeld",8.05737,47.38152,"Bus"
8594930,"Aarau, Kettenbrücke",8.04251,47.39432,"Bus"
8578642,"Aarau, Kunsthaus",8.04624,47.39079,"Bus"
8590149,"Aarau, Käfergrund",8.05226,47.37939,"Bus"
8590160,"Aarau, Neue Kantonsschule",8.04335,47.3855,"Bus"
8590151,"Aarau, Neumattstrasse",8.0654,47.39972,"Bus"
8590152,"Aarau, Obere Vorstadt",8.04767,47.38932,"Bus"
8590153,"Aarau, Pestalozzistrasse",8.04231,47.38692,"Bus"
8578644,"Aarau, Rathaus",8.04302,47.39402,"Bus"
8589189,"Aarau, Roggenhausen",8.0368,47.38569,"Bus"
8589190,"Aarau, Schanz",8.04221,47.38899,"Bus"
8511040,"Aarau, Signalstrasse",8.04674,47.37935,"Bus"
8588427,"Aarau, Sonnmattweg",8.04314,47.39768,"Bus"
8590155,"Aarau, Tannerstrasse",8.04486,47.3843,"Bus"
8590156,"Aarau, Tellizentrum",8.05907,47.39777,"Bus"
8590157,"Aarau, Wallerplatz",8.04424,47.38213,"Bus"
8590158,"Aarau, Wasserfluhweg",8.04881,47.37887,"Bus"
8590159,"Aarau, Wöschnauring",8.03104,47.38521,"Bus"
8504404,"Aarberg",7.2787,47.04454,"Zug"
8571218,"Aarberg, Aarezelg",7.27199,47.04988,"Bus"
8571260,"Aarberg, Bernfeld",7.28453,47.04378,"Bus"
8580569,"Aarberg, Bielstr/Friedhof",7.26999,47.04439,"Bus"
8504704,"Aarberg, Bifang",7.28303,47.05095,"Bus"
8571229,"Aarberg, Murtenstrasse",7.27277,47.04307,"Bus"
8580425,"Aarberg, Nidaustrasse",7.27126,47.04687,"Bus"
8571220,"Aarberg, Post/Bahnhof",7.27805,47.04449,"Bus"
8577644,"Aarberg, Scheueracker",7.2665,47.04551,"Bus"
8580406,"Aarberg, Schwimmbad",7.27503,47.04084,"Bus"
8571253,"Aarberg, Spital",7.27972,47.04733,"Bus"
8582506,"Aarburg, Alter Friedhof",7.9006,47.3262,"Bus"
8572354,"Aarburg, Höhe",7.90433,47.32916,"Bus"
8582507,"Aarburg, Kloosmatte",7.90786,47.33682,"Bus"
8572353,"Aarburg, Längacker",7.90623,47.33309,"Bus"
8590161,"Aarburg, Stadtgarten",7.89942,47.32001,"Bus"
8572355,"Aarburg, Städtli",7.89899,47.32176,"Bus"
8502000,"Aarburg-Oftringen",7.90822,47.32026,"Zug"
8572683,"Aarburg-Oftringen, Bahnhof",7.90782,47.32015,"Bus"
8530801,"Aareschlucht Ost (Bahn)",8.2179,46.712,"Zug"
8530760,"Aareschlucht West",8.19858,46.72124,"Zug"
8571594,"Aareschlucht, Ost",8.21638,46.71208,"Bus"
8508153,"Aarwangen",7.76963,47.24087,"Zug"
8508154,"Aarwangen Schloss",7.76363,47.24518,"Zug"
8508193,"Aarwangen Vorstadt",7.77132,47.23749,"Zug"
8503124,"Aathal",8.76562,47.33595,"Zug"
8595395,"Aathal, Bahnhof",8.76647,47.3356,"Bus"
8510933,"Aathal, Zürichstrasse",8.76835,47.33593,"Bus"
8510913,"Abländschen, Chappelematte",7.29176,46.5767,"Bus"
8510912,"Abländschen, Hubel",7.28963,46.57283,"Bus"
8510911,"Abländschen, Jaungrund",7.28364,46.56199,"Bus"
8510910,"Abländschen, Mittelberg",7.25711,46.54689,"Bus"
8510914,"Abländschen, Zitbödeli",7.29257,46.57251,"Bus"
8587788,"Abtwil AG, Auwerstrasse",8.35464,47.17492,"Bus"
8593466,"Abtwil AG, Hofmatt",8.35579,47.17675,"Bus"
8587786,"Abtwil AG, Langegg",8.35828,47.18316,"Bus"
8577107,"Abtwil AG, Post",8.35531,47.17452,"Bus"
8588961,"Abtwil SG, Ausserdorf",9.31471,47.42039,"Bus"
8588889,"Abtwil SG, Dorf",9.31642,47.42152,"Bus"
8506645,"Abtwil SG, Dufourpark",9.3231,47.4254,"Bus"
8506649,"Abtwil SG, Farnen",9.32691,47.42387,"Bus"
8588965,"Abtwil SG, Friedhof",9.323,47.42204,"Bus"
8588966,"Abtwil SG, Gemeindehaus",9.31934,47.42204,"Bus"
8588964,"Abtwil SG, Grund",9.32768,47.42308,"Bus"
8588962,"Abtwil SG, Hüslenweg",9.32158,47.4238,"Bus"
8506643,"Abtwil SG, Sonnenberg",9.31909,47.42581,"Bus"
8589908,"Abtwil SG, St. Josefen",9.33139,47.4232,"Bus"
8581774,"Abtwil SG, Säntispark",9.31502,47.41749,"Bus"
8581777,"Abtwil SG, Wiesenbach/Cinedome",9.31235,47.41622,"Bus"
8581776,"Abtwil SG, Zentrumpark",9.31778,47.42283,"Bus"
8576314,"Achseten, Bettbach",7.59235,46.53102,"Bus"
8588422,"Achseten, Bönigen",7.59653,46.53562,"Bus"
8507999,"Achseten, Elsigbach/Luftseilb.",7.60639,46.5292,"Bus"
8576310,"Achseten, Hoher Steg",7.59215,46.528,"Bus"
8509345,"Achseten, Höchst/Skilift",7.60333,46.51714,"Bus"
8507850,"Achseten, Kirche",7.59243,46.52594,"Bus"
8594920,"Achseten, Marchbach",7.58797,46.51596,"Bus"
8576311,"Achseten, Schmitten",7.59874,46.53969,"Bus"
8576309,"Achseten, Tregel",7.58922,46.52053,"Bus"
8574781,"Acla da Fans",10.43591,46.95476,"Bus"
8505180,"Acla da Fontauna",8.84579,46.69717,"Zug"
8587606,"Acla da Fontauna, center sport",8.84459,46.69973,"Bus"
8570093,"Aclens, collège",6.51029,46.56724,"Bus"
8505251,"Acquacalda",8.83448,46.53763,"Bus"
8588134,"Acquarossa, Casa Anziani",8.93864,46.45087,"Bus"
8578830,"Acquarossa, Ospedale",8.94032,46.45113,"Bus"
8594264,"Acquarossa, Scuole",8.93566,46.45883,"Bus"
8505257,"Acquarossa-Comprovasco",8.93849,46.45515,"Bus"
8531081,"Adelboden (Tschentenbahn)",7.55754,46.493,"Kabinenbahn"
8531130,"Adelboden Aebi (Silleren)",7.51952,46.48427,"Sesselbahn"
8530860,"Adelboden Bergläger (Höchsth.)",7.5334,46.46826,"Sesselbahn"
8530310,"Adelboden Bergläger (Silleren)",7.5332,46.46878,"Kabinenbahn"
8531131,"Adelboden Bode (Chuenisbärgli)",7.55696,46.48191,"Sesselbahn"
8530308,"Adelboden Dorf (Silleren)",7.55664,46.49036,"Kabinenbahn"
8531129,"Adelboden Eselmoos (Silleren)",7.54684,46.48214,"Kabinenbahn"
8530314,"Adelboden Geils (Hahnenmoos)",7.51273,46.45695,"Kabinenbahn"
8530318,"Adelboden Geils (Laveygrat)",7.51361,46.45748,"Sesselbahn"
8530316,"Adelboden Geils (Luegli)",7.51361,46.45631,"Sesselbahn"
8530309,"Adelboden Oey (Sillerenbahn)",7.56042,46.48788,"Kabinenbahn"
8576322,"Adelboden, Altersheim",7.56641,46.49761,"Bus"
8507996,"Adelboden, Ausserschwand",7.57398,46.50508,"Bus"
8576331,"Adelboden, Bergläger",7.5332,46.46878,"Bus"
8507858,"Adelboden, Boden Wendeplatz",7.55859,46.48198,"Bus"
8588698,"Adelboden, Bollersgraben",7.55966,46.47786,"Bus"
8576328,"Adelboden, Brügge",7.56228,46.4763,"Bus"
8592308,"Adelboden, Chäli",7.56246,46.46087,"Bus"
8592309,"Adelboden, Dorf Sillerenbahn",7.55569,46.49025,"Bus"
8576325,"Adelboden, Dürrenegge",7.56398,46.48772,"Bus"
8576326,"Adelboden, Falkiport",7.56181,46.48442,"Bus"
8576332,"Adelboden, Geils",7.51342,46.45705,"Bus"
8592310,"Adelboden, Gilbach, des Alpes",7.53901,46.47945,"Bus"
8592311,"Adelboden, Gulli",7.5308,46.4888,"Bus"
8592312,"Adelboden, Heinrichseggen",7.55248,46.48743,"Bus"
8576308,"Adelboden, Hirschen",7.58235,46.50491,"Bus"
8507852,"Adelboden, Hirzboden",7.5847,46.51147,"Bus"
8594931,"Adelboden, Hotel Alpina",7.56643,46.48426,"Bus"
8576321,"Adelboden, Janz Team",7.56875,46.49967,"Bus"
8592313,"Adelboden, Jugendh. Heilsarmee",7.54017,46.4856,"Bus"
8576327,"Adelboden, Kreuzgasse",7.5614,46.48136,"Bus"
8576307,"Adelboden, Margeli",7.57157,46.49663,"Bus"
8576306,"Adelboden, Mineralquelle",7.56002,46.48874,"Bus"
8596104,"Adelboden, Mudi",7.5643,46.48229,"Bus"
8576305,"Adelboden, Mühleport",7.56194,46.49111,"Bus"
8507998,"Adelboden, Neuweg",7.57622,46.50114,"Bus"
8507853,"Adelboden, Oey",7.56589,46.49035,"Bus"
8507851,"Adelboden, Post",7.56029,46.49369,"Bus"
8576319,"Adelboden, Rainweg",7.5723,46.50338,"Bus"
8576329,"Adelboden, Raufmatte",7.56209,46.47039,"Bus"
8592314,"Adelboden, Schermtanne",7.52641,46.48935,"Bus"
8576324,"Adelboden, Schlegeli Crystal",7.56363,46.49503,"Bus"
8576323,"Adelboden, Schlegeli Hari",7.5654,46.49605,"Bus"
8592315,"Adelboden, Schreiner Bärtschi",7.53426,46.48737,"Bus"
8576320,"Adelboden, Schönbühl",7.57084,46.50159,"Bus"
8507857,"Adelboden, Unter dem Birg",7.56665,46.45927,"Bus"
8592316,"Adelboden, Unter der Fluh",7.54634,46.48451,"Bus"
8592317,"Adelboden, Wegscheide",7.5501,46.48631,"Bus"
8592318,"Adelboden, Zürcherhaus",7.53754,46.48689,"Bus"
8575988,"Adetswil, Frowiesstrasse",8.84411,47.3385,"Bus"
8503622,"Adetswil, Sunneberg",8.84185,47.33868,"Bus"
8573064,"Adligenswil, Blatte",8.36781,47.07036,"Bus"
8573066,"Adligenswil, Chliäbnet",8.38107,47.07343,"Bus"
8589650,"Adligenswil, Dorf",8.36385,47.07047,"Bus"
8589652,"Adligenswil, Luegisland",8.3563,47.06382,"Bus"
8589653,"Adligenswil, Rigiblick",8.36252,47.06573,"Bus"
8573065,"Adligenswil, Sagi",8.37829,47.07118,"Bus"
8573062,"Adligenswil, Stuben",8.35023,47.07264,"Bus"
8573063,"Adligenswil, Widspüel",8.35995,47.07354,"Bus"
8587717,"Adlikon b. Andelfingen",8.69255,47.58264,"Bus"
8576253,"Adlikon b. R., Dorf",8.46647,47.44816,"Bus"
8590462,"Adlikon b. R., Leematten",8.46706,47.45258,"Bus"
8590461,"Adlikon b. R., Pächterried",8.47004,47.4459,"Bus"
8576255,"Adlikon b. R., Sonnhalde",8.46221,47.452,"Bus"
8576256,"Adlikon b. R., Sonnhalde West",8.45892,47.4533,"Bus"
8576281,"Adlikon b. R., Ziegelhütte",8.46608,47.45263,"Bus"
8503096,"Adliswil",8.52426,47.31227,"Zug"
8503082,"Adliswil (Luftseilbahnstation)",8.52005,47.31317,"Kabinenbahn"
8590476,"Adliswil, Ahornweg",8.53439,47.31879,"Bus"
8590463,"Adliswil, Badstrasse",8.53381,47.31359,"Bus"
8590464,"Adliswil, Bahnhof",8.52431,47.31178,"Bus"
8590471,"Adliswil, Baldernstrasse",8.51559,47.32078,"Bus"
8590465,"Adliswil, Baumgartenweg",8.52562,47.3096,"Bus"
8590466,"Adliswil, Bodenacker",8.51774,47.3164,"Bus"
8590467,"Adliswil, Büchel",8.5221,47.3011,"Bus"
8506549,"Adliswil, Dietlimoos",8.53225,47.32247,"Bus"
8590469,"Adliswil, Feldblumenstrasse",8.51908,47.31462,"Bus"
8590470,"Adliswil, Friedhof",8.52963,47.30688,"Bus"
8595717,"Adliswil, Grundstrasse",8.53005,47.31295,"Bus"
8590472,"Adliswil, Grüt",8.52899,47.32244,"Bus"
8590473,"Adliswil, Hofackerstrasse",8.53577,47.31513,"Bus"
8590474,"Adliswil, Krone",8.52764,47.31308,"Bus"
8590475,"Adliswil, Landolt-Junker-Str.",8.52226,47.30334,"Bus"
8590477,"Adliswil, Moos",8.53115,47.32513,"Bus"
8590478,"Adliswil, Poststrasse",8.5252,47.3132,"Bus"
8590480,"Adliswil, Rifertstrasse",8.53183,47.30994,"Bus"
8590481,"Adliswil, Rütistrasse/Wacht",8.5322,47.30702,"Bus"
8590482,"Adliswil, Schulhaus Kopfholz",8.53445,47.30879,"Bus"
8506636,"Adliswil, Sunnau",8.52955,47.32606,"Bus"
8590484,"Adliswil, Tiefacker",8.53002,47.31656,"Bus"
8590485,"Adliswil, Tobelhof",8.52848,47.30919,"Bus"
8590486,"Adliswil, Wanneten-/Haldenstr.",8.52247,47.30591,"Bus"
8590479,"Adliswil, Zopf",8.51635,47.31916,"Bus"
8500955,"Aedermannsdorf, Dorfplatz",7.6104,47.30456,"Bus"
8557114,"Aedermannsdorf, Güggel",7.58498,47.32368,"Bus"
8572331,"Aedermannsdorf, Staatsstrasse",7.61462,47.29882,"Bus"
8508085,"Aefligen",7.55926,47.0956,"Zug"
8503656,"Aefligen, Bahnhof",7.55906,47.09551,"Bus"
8588528,"Aefligen, Gemeindehaus",7.55691,47.09387,"Bus"
8587638,"Aegerten, Jurastrasse",7.29186,47.12297,"Bus"
8587639,"Aegerten, Salismatte",7.2871,47.12198,"Bus"
8576422,"Aegerten, Stockfeld",7.29062,47.11965,"Bus"
8508449,"Aemsigen",8.27123,46.97052,"Zahnradbahn"
8573680,"Aesch (Neftenbach)",8.68091,47.54234,"Bus"
8500117,"Aesch BL",7.60308,47.46774,"Zug"
8578232,"Aesch BL, Alterszentrum",7.59659,47.46539,"Bus"
8588758,"Aesch BL, Arlesheimerstrasse",7.59497,47.47892,"Bus_Tram"
8582727,"Aesch BL, Bahnhof",7.60281,47.46766,"Bus"
8500255,"Aesch BL, Dorf",7.59692,47.46957,"Bus_Tram"
8578228,"Aesch BL, Gewerbestrasse",7.60441,47.48171,"Bus"
8588760,"Aesch BL, Herrenweg",7.59693,47.47375,"Bus_Tram"
8578233,"Aesch BL, Höhenweg",7.59491,47.46274,"Bus"
8582800,"Aesch BL, Neumatt",7.59382,47.47112,"Bus"
8578229,"Aesch BL, Schwimmbad",7.60314,47.47895,"Bus"
8582799,"Aesch BL, Schürhof",7.56233,47.47614,"Bus"
8578230,"Aesch BL, Schützenmattschule",7.60108,47.47322,"Bus"
8578227,"Aesch BL, Sonnenweg",7.6062,47.48581,"Bus"
8582801,"Aesch BL, Sportanl Löhrenacker",7.58541,47.47275,"Bus"
8530630,"Aesch LU (See)",8.22992,47.25841,"Schiff"
8577355,"Aesch LU, Berg",8.24433,47.26093,"Bus"
8577349,"Aesch LU, Kreuz",8.24088,47.25732,"Bus"
8577342,"Aesch LU, Vorderdorf",8.24159,47.25438,"Bus"
8502876,"Aesch ZH, Gemeindehaus",8.43871,47.3382,"Bus"
8583755,"Aesch ZH, Heligenmattstrasse",8.43633,47.33452,"Bus"
8590487,"Aesch bei Maur, Im Brünneli",8.65471,47.33028,"Bus"
8590488,"Aesch bei Maur, Zollingerheim",8.65635,47.32668,"Bus"
8508985,"Aeschau, Dorf",7.76199,46.9088,"Bus"
8588367,"Aeschau, Gärtnerei",7.76259,46.90528,"Bus"
8576708,"Aeschau, Horben Schmiede",7.76424,46.90256,"Bus"
8588368,"Aeschau, Horben Schulhaus",7.77319,46.89938,"Bus"
8588366,"Aeschau, Säge",7.75886,46.9116,"Bus"
8595921,"Aeschi SO, Bolkenstrasse",7.661,47.18133,"Bus"
8500476,"Aeschi SO, Dorf",7.66439,47.18052,"Bus"
8578121,"Aeschi SO, Kirche",7.6603,47.18127,"Bus"
8589951,"Aeschi SO, Ost",7.67319,47.18146,"Bus"
8583852,"Aeschi b. Spiez, Adelmatt",7.69447,46.65466,"Bus"
8576361,"Aeschi b. Spiez, Alleestrasse",7.70109,46.65945,"Bus"
8507875,"Aeschi b. Spiez, Friedegg",7.70276,46.65149,"Bus"
8576357,"Aeschi b. Spiez, Hasleren",7.68507,46.66482,"Bus"
8583853,"Aeschi b. Spiez, Hundbüel",7.69193,46.6505,"Bus"
8576358,"Aeschi b. Spiez, Lengmattli",7.69032,46.66303,"Bus"
8576360,"Aeschi b. Spiez, Längenboden",7.71309,46.65833,"Bus"
8576353,"Aeschi b. Spiez, Mustermattli",7.70043,46.65428,"Bus"
8576359,"Aeschi b. Spiez, Niederdorf",7.69368,46.66074,"Bus"
8507860,"Aeschi b. Spiez, Post",7.69621,46.65878,"Bus"
8507879,"Aeschi b. Spiez, Wachthubel",7.71108,46.65057,"Bus"
8576355,"Aeschiried, Chemihütte",7.72019,46.64829,"Bus"
8576354,"Aeschiried, Ebenen",7.71539,46.64984,"Bus"
8582876,"Aeschiried, Fuchsgraben",7.74674,46.62992,"Bus"
8576356,"Aeschiried, Kapelle",7.72125,46.64693,"Bus"
8507862,"Aeschiried, Schulhaus",7.72409,46.645,"Bus"
8582875,"Aeschiried, Staldeweid",7.7386,46.63423,"Bus"
8582880,"Aeschiried, Suld Pochtenfall",7.76445,46.62215,"Bus"
8582874,"Aeschiried, untere Allmi",7.73503,46.63703,"Bus"
8576621,"Aeschlen b. O., Abzw. Bleiken",7.63079,46.8341,"Bus"
8576613,"Aeschlen b. O., Bareichte",7.66686,46.8378,"Bus"
8576611,"Aeschlen b. O., Dorf",7.64191,46.83694,"Bus"
8576612,"Aeschlen b. O., Langenegg",7.65738,46.83804,"Bus"
8507886,"Aeschlen ob Gunten, Dorf",7.69827,46.71981,"Bus"
8576760,"Aeschlen ob Gunten, Erliboden",7.70534,46.7207,"Bus"
8576758,"Aeschlen ob Gunten, Mattikehr",7.6972,46.71772,"Bus"
8571496,"Aetigkofen, Dorf",7.4663,47.12569,"Bus"
8571518,"Aetingen, Fröscheren",7.49595,47.12344,"Bus"
8508714,"Aetingen, Post",7.50492,47.1319,"Bus"
8570464,"Aetingen, Schulhaus",7.50212,47.12948,"Bus"
8587714,"Aettenschwil, Oberdorf",8.37127,47.18297,"Bus"
8577108,"Aettenschwil, Post",8.37182,47.18432,"Bus"
8502771,"Aeugst a.A., Dorf",8.48535,47.26783,"Bus"
8583047,"Aeugst a.A., Grossacher",8.49121,47.2661,"Bus"
8573733,"Aeugst a.A., Höchweg",8.48065,47.27086,"Bus"
8503697,"Aeugstertal, Kloster",8.48686,47.2843,"Bus"
8573717,"Aeugstertal, Landhus",8.50065,47.2799,"Bus"
8573732,"Aeugstertal, Müliberg",8.47854,47.28123,"Bus"
8582736,"Aeusseres Emdthal",7.67933,46.65966,"Bus"
8506679,"Affeltrangen, Dorf",9.03168,47.52705,"Bus"
8573178,"Affoltern a.A., Bahnhof",8.4466,47.27581,"Bus"
8580268,"Affoltern a.A., Bezirksspital",8.45739,47.28119,"Bus"
8582723,"Affoltern a.A., Blitzgbach",8.45311,47.28552,"Bus"
8581015,"Affoltern a.A., Friedhof",8.4465,47.28266,"Bus"
8502953,"Affoltern a.A., Kronenplatz",8.45441,47.28122,"Bus"
8573734,"Affoltern a.A., Lilienberg",8.46595,47.27857,"Bus"
8557097,"Affoltern a.A., Lindenmoos",8.44412,47.2708,"Bus"
8583890,"Affoltern a.A., Moosbach",8.43986,47.27274,"Bus"
8502574,"Affoltern a.A., Stigeli",8.45911,47.27846,"Bus"
8582763,"Affoltern a.A., Weinberg",8.46131,47.27975,"Bus"
8502224,"Affoltern am Albis",8.4466,47.27607,"Zug"
8571535,"Affoltern i.E., Bannholz",7.72481,47.06594,"Bus"
8571536,"Affoltern i.E., Dorf",7.73143,47.06473,"Bus"
8508275,"Affoltern-Weier",7.74986,47.06191,"Zug"
8571537,"Affoltern-Weier, Bahnhof",7.7497,47.06235,"Bus"
8501990,"Agarn, Dorf",7.66352,46.29746,"Bus"
8575546,"Agarone, Bivio per Cugnasco",8.90996,46.17909,"Bus"
8575545,"Agarone, Chiossette",8.90257,46.17849,"Bus"
8505906,"Agarone, Colletto",8.91174,46.18071,"Bus"
8580028,"Agarone, Paese",8.90602,46.17845,"Bus"
8505903,"Agarone, Piandesso",8.89931,46.17853,"Bus"
8575548,"Agarone, Roccolo",8.9103,46.18048,"Bus"
8575547,"Agarone, Ronco Morasci",8.91256,46.17943,"Bus"
8505905,"Agarone, i Lög",8.9134,46.17986,"Bus"
8575930,"Agasul",8.7443,47.42517,"Bus"
8570235,"Agiez, L'Epine",6.50789,46.71583,"Bus"
8507650,"Agiez, Vers-le-Pont",6.51135,46.7192,"Bus"
8505395,"Agno",8.90093,45.99593,"Zug"
8594207,"Agno, Aeroporto",8.90722,46.0008,"Bus"
8575395,"Agno, Chiesa",8.89745,45.99819,"Bus"
8575394,"Agno, Posta/FLP",8.90124,45.99634,"Bus"
8586258,"Agno, Scuola Media",8.9081,46.00805,"Bus"
8583478,"Agra, Bivio",8.91495,45.96979,"Bus"
8505750,"Agra, Paese",8.91236,45.96747,"Bus"
8583479,"Agra, Roncone",8.91044,45.96357,"Bus"
8583480,"Agra, Rondelli",8.91413,45.96755,"Bus"
8570547,"Agriswil",7.19376,46.95318,"Bus"
8501400,"Aigle",6.96367,46.31686,"Zug"
8505195,"Aigle, Artisans",6.93936,46.31475,"Bus"
8505193,"Aigle, Biole",6.94523,46.30991,"Bus"
8593765,"Aigle, Champex",6.94348,46.31178,"Bus"
8504420,"Aigle, Charmettes",6.96387,46.31013,"Bus"
8581845,"Aigle, Collège Planchette",6.95665,46.31951,"Bus"
8593766,"Aigle, Dents-du-Midi",6.95889,46.31373,"Bus"
8504426,"Aigle, Essertons",6.95511,46.29986,"Bus"
8581048,"Aigle, Golf",6.94908,46.3154,"Bus"
8504407,"Aigle, Grand-Pré",6.93759,46.31683,"Bus"
8504418,"Aigle, La Chapelle",6.96735,46.31281,"Bus"
8581050,"Aigle, La Mêlée",6.93808,46.31818,"Bus"
8596090,"Aigle, Les Glariers",6.96771,46.32066,"Bus"
8504425,"Aigle, Les Iles",6.94869,46.29962,"Bus"
8504421,"Aigle, Levant",6.95966,46.31667,"Bus"
8504424,"Aigle, Marais",6.94192,46.30338,"Bus"
8593769,"Aigle, Novassales",6.96273,46.31457,"Bus"
8504422,"Aigle, Orlons",6.93803,46.3107,"Bus"
8581047,"Aigle, Pautex",6.95433,46.31692,"Bus"
8509014,"Aigle, Pré Neyroud",6.9448,46.30181,"Bus"
8593770,"Aigle, Pré d'Emoz/écoles",6.95647,46.32167,"Bus"
8593768,"Aigle, Vergers",6.9636,46.312,"Bus"
8593763,"Aigle, av. Margencel",6.96494,46.31817,"Bus"
8593764,"Aigle, ch. des Lieugex",6.96015,46.32019,"Bus"
8570600,"Aigle, gare",6.9646,46.31616,"Bus"
8505194,"Aigle, imagerie médicale",6.94409,46.30938,"Bus"
8504409,"Aigle, médiathèque",6.96482,46.31943,"Bus"
8504423,"Aigle, passerelle Illarsaz",6.93509,46.31272,"Bus"
8504408,"Aigle, piscine",6.96261,46.32185,"Bus"
8570601,"Aigle, place du Marché",6.97021,46.31738,"Bus"
8581046,"Aigle, rte d'Evian",6.95882,46.31821,"Bus"
8501468,"Aigle-Château",6.97891,46.31687,"Zug"
8501484,"Aigle-Dépôt",6.97536,46.31829,"Zug"
8530335,"Aigle-Hôpital",6.96604,46.31047,"Zug"
8517484,"Aigle-Parc Aventure",6.98621,46.3153,"Zug"
8501554,"Aigle-Place-du-Marché",6.97033,46.31724,"Zug"
8531366,"Aiguille des Champeys",6.84799,46.20468,"Sesselbahn"
8592619,"Aire-la-Ville, Pont-de-Peney",6.04357,46.19293,"Bus"
8592620,"Aire-la-Ville, Treulaz",6.04537,46.1859,"Bus"
8587028,"Aire-la-Ville, centre",6.04374,46.18982,"Bus"
8595556,"Aire-la-Ville, croisée",6.04589,46.18836,"Bus"
8505201,"Airolo",8.60862,46.52752,"Zug"
8530436,"Airolo (Pesciüm)",8.60227,46.52399,"Kabinenbahn"
8587462,"Airolo, Biv. per Madrano",8.62956,46.52441,"Bus"
8575696,"Airolo, Bivio per Nante",8.60503,46.52451,"Bus"
8581249,"Airolo, Buco dei Cavalli",8.61306,46.52851,"Bus"
8575697,"Airolo, Centro Sportivo",8.61873,46.52329,"Bus"
8575691,"Airolo, Cioss di fuori",8.58925,46.5238,"Bus"
8575690,"Airolo, Funivia",8.60078,46.52485,"Bus"
8573143,"Airolo, Galleria Banchi",8.5685,46.53629,"Bus"
8573144,"Airolo, Pian Secco Belvédère",8.57462,46.53542,"Bus"
8575689,"Airolo, Stazione",8.6082,46.52767,"Bus"
8531480,"Airside Center",8.56028,47.45252,"Standseilbahn"
8575530,"Alabardia",8.81517,46.13792,"Bus"
8500366,"Albanas",9.94636,46.61554,"Sesselbahn"
8518814,"Albbruck",8.1313,47.59226,"Zug"
8572804,"Alberswil, Burgrain",8.00448,47.14172,"Bus"
8508651,"Alberswil, Dorf",8.00203,47.15027,"Bus"
8572807,"Alberswil, Unterdorf",8.00105,47.15579,"Bus"
8504072,"Albeuve",7.05542,46.51793,"Zug"
8508277,"Albeuve, gare",7.0559,46.51852,"Bus"
8530597,"Albigna",9.64548,46.33789,"Kabinenbahn"
8588297,"Albinen, Dorben",7.6262,46.35091,"Bus"
8501652,"Albinen, Dorf",7.63511,46.34018,"Bus"
8579540,"Albinen, Rhodania",7.63619,46.33712,"Bus"
8579548,"Albinen, Schreinerei",7.63304,46.34231,"Bus"
8588296,"Albinen, Schwelli",7.6327,46.34349,"Bus"
8501735,"Albinen, Tschingeren",7.62811,46.33116,"Bus"
8588148,"Albinen, Tschäss",7.6388,46.33478,"Bus"
8530179,"Albinenleitern (Torrentbahn)",7.62291,46.36102,"Kabinenbahn"
8579547,"Albinenleitern, Abzw. Flaschen",7.62105,46.35606,"Bus"
8501341,"Albinenleitern, Flaschen",7.62294,46.36082,"Bus"
8504766,"Albligen, Dorf",7.31849,46.85196,"Bus"
8570558,"Albligen, Kurried",7.31624,46.85742,"Bus"
8505376,"Albonago",8.97512,46.00853,"Standseilbahn"
8594209,"Albonago, Gradinata",8.97229,46.00894,"Bus"
8591793,"Albonago, Paese",8.9747,46.01133,"Bus"
8591579,"Albonago, Roccolo",8.97633,46.00744,"Bus"
8591580,"Albonago, Sentiero Castagni",8.97472,46.01302,"Bus"
8594211,"Albonago, Sentiero di Camà",8.97212,46.01291,"Bus"
8591581,"Albonago, Via Max Frisch",8.97161,46.01329,"Bus"
8594210,"Albonago, Via Ruscello",8.97147,46.01101,"Bus"
8591577,"Albonago, ai Ronchi",8.97323,46.0148,"Bus"
8591578,"Albonago, al Bosco",8.97404,46.01432,"Bus"
8595925,"Albulapass, Hospiz",9.83819,46.58262,"Bus"
8589193,"Alchenflüh, Bernstrasse Ost",7.57423,47.07704,"Bus"
8588627,"Alchenstorf, Dorf",7.63779,47.12525,"Bus"
8576495,"Alchenstorf, Oberalchenstorf",7.64409,47.12408,"Bus"
8576494,"Alchenstorf, Unteralchenstorf",7.62678,47.12611,"Bus"
8589489,"Alchenstorf, Wil",7.65027,47.11354,"Bus"
8505377,"Aldesago",8.97989,46.01069,"Standseilbahn"
8510708,"Aldesago Villaggio",8.97827,46.00998,"Standseilbahn"
8591582,"Aldesago, Arcate",8.98044,46.00975,"Bus"
8591583,"Aldesago, Narbostra",8.97753,46.00863,"Bus"
8591794,"Aldesago, Paese",8.97952,46.00729,"Bus"
8591584,"Aldesago, Pontaccio",8.97665,46.0087,"Bus"
8591585,"Aldesago, Ronchée",8.98007,46.00995,"Bus"
8591586,"Aldesago, Via Rava",8.97995,46.00915,"Bus"
8530086,"Alesse",7.05387,46.14898,"Kabinenbahn"
8595388,"Algetshausen, Dorf",9.10695,47.44774,"Bus"
8506220,"Algetshausen-Henau",9.10993,47.44855,"Zug"
8577132,"Alikon, Oberalikon",8.3594,47.19935,"Bus"
8505869,"All'Acqua",8.47417,46.48597,"Bus"
8501035,"Allaman",6.3997,46.47577,"Zug"
8506403,"Allaman, Château",6.3968,46.47136,"Bus"
8506405,"Allaman, Grand-Rue",6.39637,46.46976,"Bus"
8579079,"Allaman, gare",6.39964,46.47589,"Bus"
8506401,"Allaman, gare sud",6.39978,46.47534,"Bus"
8500186,"Alle",7.12827,47.42423,"Zug"
8583356,"Alle, centre sportif / loisirs",7.1214,47.42486,"Bus"
8572096,"Alle, poste/gare",7.12867,47.42451,"Bus"
8583343,"Alle, rue de l'église",7.12887,47.42646,"Bus"
8583345,"Alle, zone industrielle",7.14637,47.43008,"Bus"
8571448,"Allenlüften, Dorf",7.27189,46.94616,"Bus"
8570095,"Allens, village",6.50973,46.59984,"Bus"
8518801,"Allensbach",9.06634,47.71527,"Zug"
8502284,"Allenwinden, Dorf",8.55547,47.16442,"Bus"
8577533,"Allenwinden, Egg",8.55347,47.16966,"Bus"
8577534,"Allenwinden, Grüt",8.55348,47.16673,"Bus"
8577532,"Allenwinden, Inkenberg",8.54957,47.17572,"Bus"
8577535,"Allenwinden, St. Meinrad",8.55814,47.15981,"Bus"
8577902,"Allerheiligenberg, Höhenklinik",7.81403,47.35237,"Bus"
8577903,"Allerheiligenberg, Rank",7.81792,47.34439,"Bus"
8590412,"Allerheiligenberg, Rest. Aller",7.81786,47.35208,"Bus"
8501378,"Allières",7.00789,46.46983,"Zug"
8530302,"Allmenalp",7.64945,46.49229,"Kabinenbahn"
8507550,"Allmend",7.93197,46.59403,"Zahnradbahn"
8500250,"Allmend (Sesselbahn)",7.93112,46.59331,"Sesselbahn"
8531035,"Allmendhubel (Sesselbahn)",7.88712,46.56415,"Sesselbahn"
8507359,"Allmendhubel (Standseilbahn)",7.88907,46.56384,"Standseilbahn"
8577023,"Allmendingen b. B., Garten-C.",7.51409,46.92001,"Bus"
8508094,"Allmendingen b. B., Hirschen",7.51928,46.91668,"Bus"
8577024,"Allmendingen b. B., Käserei",7.52394,46.91487,"Bus"
8588173,"Allmendingen b.Thun,Wendeplatz",7.59308,46.74148,"Bus"
8576836,"Allmendingen bei Thun, Dorf",7.59534,46.74333,"Bus"
8576834,"Allmendingen bei Thun, RAZ",7.58773,46.737,"Bus"
8576837,"Allmendingen, Längmatt",7.5998,46.74504,"Bus"
8531034,"Allmiboden",7.8893,46.56626,"Sesselbahn"
8589283,"Allschwil, Bettenacker",7.55499,47.55055,"Bus"
8578160,"Allschwil, Binningerstrasse",7.53977,47.55212,"Bus_Tram"
8587001,"Allschwil, Dorf",7.53657,47.55112,"Bus_Tram"
8588763,"Allschwil, Engehollenweg",7.52763,47.54988,"Bus"
8589284,"Allschwil, Friedhof",7.5377,47.55389,"Bus"
8588761,"Allschwil, Gartenhof",7.54373,47.54889,"Bus"
8578174,"Allschwil, Gartenstrasse",7.54428,47.55253,"Bus_Tram"
8589285,"Allschwil, Grabenring",7.54158,47.55404,"Bus"
8578173,"Allschwil, Hagmattstrasse",7.54436,47.55567,"Bus"
8578172,"Allschwil, Im Brühl",7.5469,47.55723,"Bus"
8589286,"Allschwil, Kirche",7.55399,47.55397,"Bus_Tram"
8578171,"Allschwil, Kreuzstrasse",7.55073,47.55949,"Bus"
8578159,"Allschwil, Letten",7.54694,47.54817,"Bus"
8589287,"Allschwil, Lindenplatz",7.56042,47.55766,"Bus_Tram"
8589288,"Allschwil, Merkurstrasse",7.55728,47.55581,"Bus_Tram"
8578158,"Allschwil, Paradies",7.5539,47.54663,"Bus"
8589289,"Allschwil, Parkallee",7.55674,47.55284,"Bus"
8578163,"Allschwil, Reservoir",7.52304,47.54896,"Bus"
8578162,"Allschwil, Rosenberg",7.53207,47.55112,"Bus"
8593495,"Allschwil, Spitzwald",7.54302,47.54097,"Bus"
8507228,"Allschwil, Wänglismatten",7.5545,47.56164,"Bus"
8589290,"Allschwil, Ziegelei",7.54823,47.55163,"Bus_Tram"
8578164,"Allschwil, Ziegelhof",7.51218,47.54242,"Bus"
8593496,"Allschwil, Zum Sporn",7.54412,47.54451,"Bus"
8574544,"Almens, Dorf",9.45437,46.73829,"Bus"
8502865,"Alosen, Dorf",8.63765,47.14092,"Bus"
8502866,"Alosen, Giregg",8.6426,47.14411,"Bus"
8577574,"Alosen, Hundtal",8.65242,47.14311,"Bus"
8502867,"Alosen, Raten",8.66371,47.14204,"Bus"
8577573,"Alosen, Schmidte",8.63314,47.14007,"Bus"
8531300,"Alp Bella",10.3876,46.9825,"Sesselbahn"
8574813,"Alp Camp",10.1187,46.40142,"Bus"
8531124,"Alp Dado",9.21009,46.82612,"Sesselbahn"
8530846,"Alp Dado (Bergstation)",9.08022,46.79376,"Sesselbahn"
8530847,"Alp Dado (Talstation Fil)",9.08023,46.7933,"Sesselbahn"
8530738,"Alp Darlux",9.77987,46.62446,"Sesselbahn"
8509357,"Alp Grüm",10.03113,46.37475,"Zug"
8530606,"Alp Languard",9.92188,46.4878,"Sesselbahn"
8531332,"Alp Lavoz",9.52707,46.7403,"Sesselbahn"
8531331,"Alp Nova",9.52187,46.73296,"Sesselbahn"
8530581,"Alp Pradaschier",9.52024,46.78316,"Sesselbahn"
8530969,"Alp Scharmoin",9.57254,46.74885,"Sesselbahn"
8530485,"Alp Sellamatt",9.29634,47.18215,"Sesselbahn"
8531045,"Alp Sellamatt (Ruestel Talst.)",9.30031,47.17638,"Sesselbahn"
8531150,"Alp Surlej",9.81151,46.44559,"Sesselbahn"
8531298,"Alp Trida",10.37378,46.97848,"Sesselbahn"
8500350,"Alp de Confin",9.15503,46.45636,"Sesselbahn"
8530379,"Alpboden",8.43983,46.91791,"Kabinenbahn"
8578848,"Alpe Casaccia",8.81838,46.54607,"Bus"
8530460,"Alpe Foppa",8.89341,46.11673,"Kabinenbahn"
8510580,"Alpe des Chaux, Aiguerousse",7.09875,46.28852,"Bus"
8510576,"Alpe des Chaux, Combe du Scex",7.09357,46.29127,"Bus"
8510577,"Alpe des Chaux, Frience",7.10265,46.29045,"Bus"
8510581,"Alpe des Chaux, Les Arsets",7.09745,46.28712,"Bus"
8510583,"Alpe des Chaux, Les Ernets",7.0978,46.28486,"Bus"
8510578,"Alpe des Chaux, Les Fracherets",7.09951,46.28956,"Bus"
8510579,"Alpe des Chaux, Les Outanes",7.09568,46.28895,"Bus"
8510582,"Alpe des Chaux, Les Verneys",7.09466,46.28661,"Bus"
8510626,"Alpe des Chaux, Ptes Maraîches",7.09844,46.29065,"Bus"
8531455,"Alpe di Nara",8.8741,46.47126,"Sesselbahn"
8505600,"Alpe di Neggia, Alpe",8.84542,46.11066,"Bus"
8505602,"Alpe di Neggia, Bv. Trecciura",8.84917,46.11988,"Bus"
8531325,"Alpetli",9.31476,46.51974,"Sesselbahn"
8507375,"Alpiglen",8.0019,46.6001,"Zahnradbahn"
8508316,"Alpnach Dorf",8.27535,46.94059,"Zug"
8572909,"Alpnach Dorf, Bahnhof",8.27514,46.94049,"Bus"
8581164,"Alpnach Dorf, Hofmättelikreuz",8.26936,46.938,"Bus"
8572908,"Alpnach Dorf, Kantonalbank",8.27061,46.93967,"Bus"
8581160,"Alpnach Dorf, Schoried",8.25457,46.93347,"Bus"
8581326,"Alpnach Dorf, untere Feldstr.",8.26392,46.93591,"Bus"
8508317,"Alpnachstad",8.27785,46.95503,"Zug"
8508503,"Alpnachstad (See)",8.27876,46.95567,"Schiff"
8508458,"Alpnachstad PB",8.27718,46.95549,"Zahnradbahn"
8582458,"Alpnachstad, Bahnhof",8.27773,46.9552,"Bus"
8503724,"Alpthal, Eigen",8.72183,47.08706,"Bus"
8573760,"Alpthal, Gribsch",8.72254,47.08304,"Bus"
8573761,"Alpthal, Grund",8.72268,47.07901,"Bus"
8503861,"Alpthal, Kirche",8.71565,47.07079,"Bus"
8503725,"Alpthal, Malosen",8.71282,47.0626,"Bus"
8580431,"Alpthal, Rütli",8.71419,47.06534,"Bus"
8573762,"Alpthal, Schnüerlismatt",8.71945,47.07409,"Bus"
8573763,"Alpthal, Stei",8.70956,47.05517,"Bus"
8530610,"Alptrider Sattel",10.36728,46.97017,"Kabinenbahn"
8530484,"Alt St. Johann (Sellamattbahn)",9.28886,47.19335,"Sesselbahn"
8506750,"Alt St. Johann, Dorf",9.28402,47.19323,"Bus"
8574025,"Alt St. Johann, Horb",9.26689,47.18637,"Bus"
8575709,"Altanca",8.68143,46.52431,"Bus"
8505259,"Altanca (funicolare)",8.67456,46.52313,"Standseilbahn"
8587351,"Altavilla",7.15385,46.93365,"Bus"
8572779,"Altbüron, Feld",7.87088,47.18754,"Bus"
8572780,"Altbüron, Gruenbach",7.86254,47.1944,"Bus"
8572778,"Altbüron, Halde",7.87632,47.18353,"Bus"
8572776,"Altbüron, Hiltbrunnen",7.88164,47.1788,"Bus"
8595695,"Altbüron, Linden",7.88381,47.18304,"Bus"
8580018,"Altbüron, Ludligen",7.86128,47.20123,"Bus"
8572777,"Altbüron, Post",7.87976,47.181,"Bus"
8503950,"Altdorf SH, Dorf",8.6601,47.7846,"Bus"
8505113,"Altdorf UR",8.63158,46.87574,"Zug"
8573089,"Altdorf UR, Allmend",8.62717,46.88302,"Bus"
8573088,"Altdorf UR, Bahnhof Ost",8.63178,46.87573,"Bus"
8510105,"Altdorf UR, Bahnhof West",8.63082,46.87591,"Bus"
8587775,"Altdorf UR, Chornmatt",8.63081,46.88109,"Bus"
8577377,"Altdorf UR, Dätwyler AG",8.64671,46.87731,"Bus"
8587401,"Altdorf UR, Frauenkloster",8.64396,46.87874,"Bus"
8577376,"Altdorf UR, Gemeindehaus",8.6412,46.8828,"Bus"
8573087,"Altdorf UR, Hagenschulhaus",8.63876,46.87968,"Bus"
8573116,"Altdorf UR, Kollegium",8.65013,46.87523,"Bus"
8588567,"Altdorf UR, Langmatt",8.63517,46.87773,"Bus"
8577373,"Altdorf UR, Moosbad",8.62913,46.89016,"Bus"
8505657,"Altdorf UR, Post",8.64236,46.88134,"Bus"
8588652,"Altdorf UR, Pro Familia",8.63691,46.87364,"Bus"
8577374,"Altdorf UR, Ringli",8.63503,46.88576,"Bus"
8577393,"Altdorf UR, Ruberst/Neuland",8.63481,46.86635,"Bus"
8577375,"Altdorf UR, Spital",8.63726,46.88403,"Bus"
8588583,"Altdorf UR, Steinmattstrasse",8.63621,46.8706,"Bus"
8505892,"Altdorf UR, Telldenkmal",8.64401,46.88177,"Bus"
8503211,"Altendorf",8.8229,47.19396,"Zug"
8503683,"Altendorf Seestatt",8.83248,47.19489,"Schiff"
8573826,"Altendorf, Bahnhof",8.82316,47.19289,"Bus"
8573828,"Altendorf, Bitzi",8.83558,47.19078,"Bus"
8573825,"Altendorf, Letzi",8.81573,47.19471,"Bus"
8503635,"Altendorf, Lidwil",8.81208,47.19793,"Bus"
8503636,"Altendorf, Schweizerhofplatz",8.83112,47.19219,"Bus"
8573827,"Altendorf, Stoglen",8.8271,47.19269,"Bus"
8582391,"Altendorf, Talstrasse",8.81797,47.19322,"Bus"
8570505,"Altendorf, Tevag",8.80816,47.20059,"Bus"
8506467,"Altenrhein Schifflände",9.56029,47.49865,"Schiff"
8581491,"Altenrhein, Am Rhein",9.56169,47.49069,"Bus"
8581490,"Altenrhein, Dorf",9.5528,47.49039,"Bus"
8581489,"Altenrhein, Flugplatz",9.55112,47.48856,"Bus"
8581492,"Altenrhein, Hegi",9.57046,47.48219,"Bus"
8581508,"Altenrhein, Markthalle",9.54764,47.48541,"Bus"
8581509,"Altenrhein, Schulhaus",9.55603,47.49022,"Bus"
8506389,"Alter Zoll",9.52204,47.36858,"Zug"
8510236,"Alter Zoll, Bahnhof",9.52138,47.36841,"Bus"
8504945,"Alterswil FR, Beniwil",7.24744,46.79694,"Bus"
8504850,"Alterswil FR, Dorfplatz",7.25995,46.79518,"Bus"
8504620,"Alterswil FR, Galteren",7.22965,46.80264,"Bus"
8577840,"Alterswil FR, Geriwil",7.26751,46.79159,"Bus"
8577841,"Alterswil FR, Hofmatt",7.27636,46.78291,"Bus"
8504626,"Alterswil FR, Wengliswil",7.28002,46.77873,"Bus"
8577842,"Alterswil FR, Wilersguet",7.28559,46.76786,"Bus"
8506554,"Alterswilen",9.15432,47.60946,"Bus"
8576302,"Altikon, Brückenwaage",8.78086,47.57347,"Bus"
8582021,"Altikon, Herten",8.80073,47.56879,"Bus"
8572810,"Altishofen, Bäckerei",7.9683,47.19616,"Bus"
8557106,"Altishofen, Kreisel",7.97243,47.2004,"Bus"
8572811,"Altishofen, Unterdorf",7.96717,47.20174,"Bus"
8503292,"Altmatt",8.69615,47.13164,"Zug"
8506125,"Altnau",9.26592,47.62137,"Zug"
8530834,"Altnau (See)",9.26908,47.62313,"Schiff"
8581706,"Altnau, Bahnhof",9.26671,47.62094,"Bus"
8573431,"Altnau, Kirche",9.25755,47.60773,"Bus"
8573428,"Altnau, Längiacker",9.26528,47.61833,"Bus"
8573432,"Altnau, Rössli",9.26042,47.60923,"Bus"
8581675,"Altnau, Schmitteweg",9.25551,47.61191,"Bus"
8573429,"Altnau, Unterhof",9.26097,47.61557,"Bus"
8573430,"Altnau, Zentrum",9.25847,47.61213,"Bus"
8504365,"Altreu",7.44889,47.19038,"Schiff"
8589875,"Altreu, Info Zentrum Witi",7.44925,47.19176,"Bus"
8589876,"Altreu, Mitte",7.44801,47.19478,"Bus"
8589074,"Altreu, Nord",7.44784,47.19767,"Bus"
8506319,"Altstätten SG",9.55653,47.37424,"Zug"
8595237,"Altstätten SG, Allmend",9.55256,47.36684,"Bus"
8578482,"Altstätten SG, Altersh. Forst",9.53724,47.36782,"Bus"
8506450,"Altstätten SG, Bahnhof",9.55637,47.37404,"Bus"
8578472,"Altstätten SG, Baumert",9.51743,47.38617,"Bus"
8595949,"Altstätten SG, Bleichi",9.563,47.3734,"Bus"
8594591,"Altstätten SG, Breite",9.538,47.37901,"Bus"
8588215,"Altstätten SG, Bächler",9.53744,47.38963,"Bus"
8578463,"Altstätten SG, Depot",9.54502,47.3805,"Bus"
8587486,"Altstätten SG, Eichbergerstr.",9.54972,47.37524,"Bus"
8588217,"Altstätten SG, Elsenacker",9.54617,47.3777,"Bus"
8594590,"Altstätten SG, Ergeten",9.51175,47.38728,"Bus"
8578473,"Altstätten SG, Ergeten-Loch",9.50961,47.38535,"Bus"
8594593,"Altstätten SG, Feldstrasse",9.54541,47.37827,"Bus"
8588128,"Altstätten SG, Fleuben",9.55673,47.36028,"Bus"
8578480,"Altstätten SG, Hirschen",9.54717,47.3762,"Bus"
8580996,"Altstätten SG, Kapf",9.55492,47.39555,"Bus"
8578466,"Altstätten SG, Klosterguet",9.55017,47.37658,"Bus"
8594592,"Altstätten SG, Oberkirlen",9.55327,47.37557,"Bus"
8574147,"Altstätten SG, Rathaus",9.54183,47.37804,"Bus"
8578475,"Altstätten SG, Ruppen",9.50926,47.39083,"Bus"
8588218,"Altstätten SG, Ruppendörfli",9.50724,47.38986,"Bus"
8578474,"Altstätten SG, Ruppenhalde",9.50785,47.38864,"Bus"
8574145,"Altstätten SG, Spital/Heime",9.54178,47.38127,"Bus"
8578464,"Altstätten SG, Stadt",9.53814,47.37724,"Bus"
8578470,"Altstätten SG, Sägentobel",9.52394,47.39009,"Bus"
8578471,"Altstätten SG, Tannenbaum",9.52214,47.38703,"Bus"
8578467,"Altstätten SG, Traube",9.53754,47.38447,"Bus"
8578481,"Altstätten SG, Unterlitten",9.54962,47.37424,"Bus"
8578468,"Altstätten SG, Wieswanne",9.53969,47.38711,"Bus"
8578469,"Altstätten SG, Ziel-Kornberg",9.53476,47.38901,"Bus"
8506379,"Altstätten Stadt",9.53749,47.37684,"Zug"
8577350,"Altwis, Dorf",8.25096,47.23884,"Bus"
8509194,"Alvaneu",9.65073,46.67125,"Zug"
8583425,"Alvaneu Bad, Badezentrum",9.64995,46.66952,"Bus"
8574866,"Alvaneu Bad, Dorfplatz",9.6464,46.66827,"Bus"
8579854,"Alvaneu Bad, Solas",9.6618,46.67216,"Bus"
8574844,"Alvaneu Dorf, Crappa Naira",9.62937,46.67268,"Bus"
8509751,"Alvaneu Dorf, Dorfplatz",9.64793,46.67877,"Bus"
8504525,"Alvaneu Dorf, Schule",9.64982,46.67966,"Bus"
8574867,"Alvaneu, Bahnhof",9.64991,46.6711,"Bus"
8574862,"Alvaschein, Gipsmühle",9.56173,46.67334,"Bus"
8582133,"Alvaschein, Solisbrücke",9.52996,46.67888,"Bus"
8574863,"Alvaschein, vischnanca",9.5509,46.6748,"Bus"
8575702,"Ambrì, Chiesa",8.69518,46.50932,"Bus"
8581303,"Ambrì, centro scolastico",8.68816,46.51033,"Bus"
8575703,"Ambrì, sotto",8.70363,46.50783,"Bus"
8505202,"Ambrì-Piotta",8.68993,46.51076,"Zug"
8575701,"Ambrì-Piotta, Stazione",8.68976,46.51065,"Bus"
8530491,"Amden (Talstat. Niederschlag)",9.14327,47.14978,"Sesselbahn"
8531307,"Amden Arvenbühl",9.17957,47.14659,"Sesselbahn"
8531308,"Amden Brittertanne",9.17825,47.15197,"Sesselbahn"
8578495,"Amden, Bellevue",9.12779,47.14278,"Bus"
8578497,"Amden, Brugg",9.13855,47.14955,"Bus"
8509990,"Amden, Dorf",9.14128,47.14901,"Bus"
8509462,"Amden, Forten",9.13194,47.14478,"Bus"
8509463,"Amden, Hinterstein",9.1553,47.15155,"Bus"
8509464,"Amden, Lehni",9.13229,47.14109,"Bus"
8578500,"Amden, Mennweg",9.15347,47.1486,"Bus"
8578496,"Amden, Montana",9.13654,47.14719,"Bus"
8578501,"Amden, Sell",9.16491,47.1511,"Bus"
8509465,"Amden, Soldanella",9.15918,47.15122,"Bus"
8578499,"Amden, Stocksitten",9.15443,47.14697,"Bus"
8578498,"Amden, Vorderdorf",9.14842,47.14872,"Bus"
8579494,"Aminona",7.52526,46.33229,"Bus"
8530174,"Aminona (télécabine)",7.52571,46.33254,"Kabinenbahn"
8506543,"Aminona, Colombire",7.52059,46.33724,"Bus"
8506551,"Amlikon, Mitte",9.05644,47.56906,"Bus"
8580601,"Amlikon, Oberdorf",9.05457,47.56783,"Bus"
8573371,"Amlikon, Unterdorf",9.05769,47.56997,"Bus"
8578757,"Ammerswil AG, Dorfplatz",8.20747,47.36931,"Bus"
8590162,"Ammerswil AG, Kirche",8.20841,47.37116,"Bus"
8578755,"Ammerswil AG, Rebrain",8.20274,47.36893,"Bus"
8508871,"Ammerzwil BE, Dorf",7.34146,47.07208,"Bus"
8581024,"Ammerzwil BE, Sandhubel",7.34385,47.06708,"Bus"
8571464,"Ammerzwil BE, Unterdorf",7.33976,47.06867,"Bus"
8506109,"Amriswil",9.30223,47.55045,"Zug"
8587135,"Amriswil, Almensberg",9.32776,47.53859,"Bus"
8587138,"Amriswil, Bahnhof",9.30219,47.55027,"Bus"
8587139,"Amriswil, Grenzstrasse",9.28741,47.5444,"Bus"
8587141,"Amriswil, Hemmerswil",9.30676,47.54367,"Bus"
8582163,"Amriswil, Kirchstrasse",9.29916,47.54789,"Bus"
8587143,"Amriswil, Köpplishaus",9.28168,47.54489,"Bus"
8595456,"Amriswil, Maihalde",9.30665,47.54474,"Bus"
8587145,"Amriswil, Marktplatz",9.29962,47.54506,"Bus"
8587146,"Amriswil, Mühlebach",9.27653,47.54472,"Bus"
8587140,"Amriswil, Quellenhof",9.29291,47.54514,"Bus"
8583792,"Amriswil, Schrofen",9.27432,47.54731,"Bus"
8587148,"Amriswil, St. Gallerstrasse",9.29747,47.54057,"Bus"
8510282,"Amriswil, Strassenverkehrsamt",9.27803,47.5477,"Bus"
8587147,"Amriswil, Säntisstrasse",9.30586,47.54883,"Bus"
8587150,"Amriswil, Zentrum",9.30186,47.54639,"Bus"
8576831,"Amsoldingen, Kirche",7.58004,46.72725,"Bus"
8576832,"Amsoldingen, Kreuz",7.58348,46.72787,"Bus"
8576830,"Amsoldingen, Sandgrube",7.58315,46.72236,"Bus"
8576829,"Amsoldingen, See",7.58172,46.72085,"Bus"
8576833,"Amsoldingen, Steghalten",7.58423,46.73156,"Bus"
8530692,"Amsteg (Talstation Arnisee)",8.66482,46.77485,"Kabinenbahn"
8577391,"Amsteg, Grund/Seilbahn",8.66846,46.77504,"Bus"
8505667,"Amsteg, Post",8.67097,46.76973,"Bus"
8588654,"Amsteg, Schulhaus",8.67004,46.77218,"Bus"
8573086,"Amsteg, St. Anton",8.67875,46.76951,"Bus"
8509663,"Andeer, Bärenburg",9.42746,46.59348,"Bus"
8580886,"Andeer, Heilbad",9.42683,46.60507,"Bus"
8509664,"Andeer, Rofflaschlucht",9.42154,46.58204,"Bus"
8581095,"Andeer, Tgavugl",9.42755,46.6048,"Bus"
8509752,"Andeer, posta",9.42663,46.60213,"Bus"
8506047,"Andelfingen",8.678,47.59377,"Zug"
8573196,"Andelfingen, Bahnhof",8.67779,47.59387,"Bus"
8505165,"Andermatt",8.59327,46.63689,"Zug"
8505192,"Andermatt (Gemsstockbahn)",8.59178,46.63253,"Kabinenbahn"
8531050,"Andermatt (Gondelbahn Gütsch)",8.59537,46.63777,"Kabinenbahn"
8573140,"Andermatt, Bahnhof",8.59438,46.63705,"Bus"
8507915,"Andermatt, Bahnhofplatz",8.59285,46.63759,"Bus"
8594471,"Andermatt, Bodenstrasse 1",8.59057,46.63487,"Bus"
8595940,"Andermatt, Bodenstrasse 2",8.58949,46.63331,"Bus"
8595943,"Andermatt, Brücke",8.59763,46.63395,"Bus"
8595941,"Andermatt, Gemeinde Werkhof",8.59134,46.63376,"Bus"
8594472,"Andermatt, Gemeindehaus",8.59478,46.63352,"Bus"
8594469,"Andermatt, Gemsstockbahn 1",8.59225,46.6322,"Bus"
8595942,"Andermatt, Gemsstockbahn 2",8.59215,46.63206,"Bus"
8594477,"Andermatt, Kreisel Oberalp Süd",8.59654,46.63454,"Bus"
8594473,"Andermatt, Krone",8.59615,46.63319,"Bus"
8594476,"Andermatt, Oberwiler",8.6,46.63679,"Bus"
8594475,"Andermatt, Poststrasse",8.59616,46.63501,"Bus"
8594474,"Andermatt, Tourist Info",8.59508,46.63682,"Bus"
8595944,"Andermatt, Unteralp 1",8.6014,46.63527,"Bus"
8595945,"Andermatt, Unteralp 2",8.60131,46.63538,"Bus"
8595235,"Andermatt, Unterwiler 1",8.59967,46.63529,"Bus"
8595236,"Andermatt, Unterwiler 2",8.59962,46.63549,"Bus"
8511097,"Andiast, Acletta",9.10621,46.77981,"Bus"
8579976,"Andiast, S. Clau",9.10871,46.78182,"Bus"
8511101,"Andiast, spv. Fraissen",9.11163,46.78328,"Bus"
8509753,"Andiast, vitg",9.11386,46.78444,"Bus"
8573956,"Andwil SG, Grünau",9.26528,47.43989,"Bus"
8581737,"Andwil SG, Linden",9.27595,47.44045,"Bus"
8573955,"Andwil SG, Otmarsegg",9.27291,47.4352,"Bus"
8506789,"Andwil SG, Post",9.27068,47.4391,"Bus"
8506254,"Andwil SG, St. Margreten",9.27113,47.42714,"Bus"
8582176,"Andwil TG, Eckartshausen",9.2151,47.5727,"Bus"
8582177,"Andwil TG, Volg",9.21524,47.56698,"Bus"
8580347,"Anglikon, Brändliacker",8.26793,47.36459,"Bus"
8580350,"Anglikon, Bursthalde",8.26265,47.36558,"Bus"
8580348,"Anglikon, Kesselackerstrasse",8.26526,47.36572,"Bus"
8580349,"Anglikon, Knobelstrasse",8.26278,47.36703,"Bus"
8572618,"Anglikon, Zentrum",8.26358,47.36405,"Bus"
8501231,"Anières (lac)",6.22133,46.27849,"Schiff"
8595008,"Anières, Bassy",6.23008,46.27859,"Bus"
8592621,"Anières, Chavannes",6.22926,46.2832,"Bus"
8595016,"Anières, Chevrens",6.23863,46.28387,"Bus"
8592623,"Anières, Courbes",6.22716,46.28082,"Bus"
8595009,"Anières, Courson",6.23604,46.28253,"Bus"
8592761,"Anières, Foyer",6.23293,46.27177,"Bus"
8592625,"Anières, Gravière",6.23701,46.28888,"Bus"
8592626,"Anières, Marguerite",6.2206,46.27286,"Bus"
8592764,"Anières, Nant-d'Aisy",6.21904,46.27078,"Bus"
8592622,"Anières, Sous-Chevrens",6.23405,46.28665,"Bus"
8592624,"Anières, douane",6.23794,46.26839,"Bus"
8595010,"Anières, mairie",6.22761,46.27475,"Bus"
8587029,"Anières, village",6.22324,46.27693,"Bus"
8508332,"Antagnes, Forêt",7.0055,46.28297,"Bus"
8504687,"Antagnes, Glutières",7.01298,46.28536,"Bus"
8504439,"Antagnes, Le Boët",7.00884,46.28098,"Bus"
8504444,"Antagnes, Les Fontaines",7.00826,46.27788,"Bus"
8508334,"Antagnes, Pissot",7.01156,46.27542,"Bus"
8504443,"Antagnes, place de la Dîme",7.01263,46.27661,"Bus"
8504442,"Antagnes, rte d'Antagnes",7.0108,46.27849,"Bus"
8572297,"Anwil, Ausserdorf",7.94371,47.45176,"Bus"
8500965,"Anwil, Dorf",7.93946,47.44947,"Bus"
8572296,"Anwil, Talweiher",7.92865,47.45188,"Bus"
8575736,"Anzonico, Bv. Calonico",8.85245,46.43774,"Bus"
8575739,"Anzonico, Paese",8.86237,46.43129,"Bus"
8530151,"Anzère (télécabine)",7.39488,46.29526,"Kabinenbahn"
8531278,"Anzère Les Rousses",7.43669,46.33263,"Sesselbahn"
8570806,"Anzère, Barrage de Tseuzier",7.43503,46.34632,"Bus"
8570794,"Anzère, Bisse d'Ayent",7.40283,46.29299,"Bus"
8570795,"Anzère, Chamossaire",7.40608,46.29547,"Bus"
8570805,"Anzère, Les Rousses",7.43747,46.33267,"Bus"
8570804,"Anzère, Pra Combère",7.43475,46.32266,"Bus"
8570796,"Anzère, Pralan",7.40559,46.29914,"Bus"
8570793,"Anzère, Utignou",7.41053,46.29469,"Bus"
8570797,"Anzère, centre",7.39642,46.2958,"Bus"
8575519,"Anzère, télécabine",7.39466,46.29464,"Bus"
8501965,"Anzère, village sud",7.3999,46.29657,"Bus"
8506286,"Appenzell",9.40954,47.32854,"Zug"
8581181,"Appenzell, Adlerplatz",9.41097,47.33091,"Bus"
8578419,"Appenzell, Alpsteinstrasse",9.42631,47.3301,"Bus"
8578423,"Appenzell, Bahnhof",9.40944,47.3289,"Bus"
8578426,"Appenzell, Bleichenwald",9.42525,47.33677,"Bus"
8578417,"Appenzell, Bleuer",9.44457,47.33221,"Bus"
8581182,"Appenzell, Hallenbad",9.41189,47.33418,"Bus"
8581183,"Appenzell, Hirschberg Station",9.42134,47.332,"Bus"
8581180,"Appenzell, Kreuzhof",9.41315,47.33219,"Bus"
8578415,"Appenzell, Kreuzstrasse",9.46216,47.3339,"Bus"
8574056,"Appenzell, Lank",9.39782,47.34824,"Bus"
8578416,"Appenzell, Lädeli",9.45471,47.33481,"Bus"
8579826,"Appenzell, Meistersrüte",9.4326,47.34871,"Bus"
8574054,"Appenzell, Mettlenbrücke",9.40564,47.33591,"Bus"
8578418,"Appenzell, Moren",9.43771,47.33108,"Bus"
8578425,"Appenzell, Schönenbüel",9.42764,47.33315,"Bus"
8583201,"Appenzell, Sonnhalde",9.41585,47.3336,"Bus"
8574055,"Appenzell, Steig",9.39963,47.34141,"Bus"
8574057,"Appenzell, Unterschlatt",9.38858,47.35174,"Bus"
8578424,"Appenzell, Zentrale",9.43886,47.33381,"Bus"
8578421,"Appenzell, Ziel",9.4069,47.33451,"Bus"
8501094,"Apples",6.42358,46.55089,"Zug"
8595647,"Apples, Fondation Baud",6.43032,46.55356,"Bus"
8570080,"Apples, Hôtel de Commune",6.42783,46.55225,"Bus"
8570079,"Apples, La Mottaz",6.43308,46.54554,"Bus"
8511003,"Apples, Le Manège",6.43346,46.55858,"Bus"
8595648,"Apples, gare",6.42399,46.55096,"Bus"
8506245,"Aproz, Jardins",7.31402,46.20878,"Bus"
8570842,"Aproz, bif. Bieudron",7.28423,46.19503,"Bus"
8570841,"Aproz, rte de Coor",7.30858,46.20174,"Bus"
8570840,"Aproz, village",7.31589,46.20671,"Bus"
8578835,"Aquila, Bivio Ponto-Aquilesco",8.94531,46.50788,"Bus"
8595910,"Aquila, Cresedo",8.94722,46.50564,"Bus"
8505268,"Aquila, Paese",8.95018,46.50278,"Bus"
8588453,"Aran, Pra Forny",6.71135,46.50533,"Bus"
8575389,"Aranno, Cappella di Aranno",8.8742,46.02161,"Bus"
8575391,"Aranno, Flora",8.87355,46.01576,"Bus"
8580041,"Aranno, Lusciè",8.87697,46.02786,"Bus"
8575392,"Aranno, Maestà",8.87718,46.01512,"Bus"
8505886,"Aranno, Paese",8.87055,46.01801,"Bus"
8575393,"Aranno, Prumé",8.88091,46.01572,"Bus"
8570782,"Arbaz, Barra",7.38988,46.28009,"Bus"
8570779,"Arbaz, Onna",7.3832,46.27112,"Bus"
8570780,"Arbaz, Planèje",7.37909,46.27558,"Bus"
8570781,"Arbaz, Prozerbou",7.38517,46.27635,"Bus"
8580674,"Arbaz, Pré-du-Loup",7.38522,46.28384,"Bus"
8570778,"Arbaz, bif. Blignou",7.38704,46.26919,"Bus"
8570784,"Arbaz, café du Lac",7.38228,46.28085,"Bus"
8501327,"Arbaz, poste",7.38306,46.2727,"Bus"
8581252,"Arbedo, Casa Comunale",9.04429,46.21299,"Bus"
8581251,"Arbedo, Chiesa",9.04052,46.21152,"Bus"
8505951,"Arbedo, Molinazzo",9.03966,46.21292,"Bus"
8580519,"Arbedo, Polveriera",9.04873,46.21972,"Bus"
8582979,"Arbedo, Polveriera Nord",9.05115,46.22065,"Bus"
8582980,"Arbedo, Ponte Pacciaredo",9.0426,46.21467,"Bus"
8582981,"Arbedo, Rotondello",9.04483,46.21647,"Bus"
8583691,"Arbedo, Via Orbello",9.04692,46.21848,"Bus"
8578335,"Arboldswil, Dorf",7.71717,47.41567,"Bus"
8578333,"Arboldswil, Mühletal",7.7252,47.41485,"Bus"
8578334,"Arboldswil, Renggelts",7.72518,47.41022,"Bus"
8506308,"Arbon",9.43336,47.51059,"Zug"
8506110,"Arbon (See)",9.44032,47.51264,"Schiff"
8516270,"Arbon Seemoosriet",9.42502,47.52119,"Zug"
8574246,"Arbon, Alpenblick",9.41716,47.50848,"Bus"
8587154,"Arbon, Alter Werkhof",9.4253,47.51162,"Bus"
8574251,"Arbon, Bahnhof",9.43197,47.51108,"Bus"
8507329,"Arbon, Bahnhof Ost",9.43362,47.51103,"Bus"
8574247,"Arbon, Bergli",9.4245,47.51579,"Bus"
8580919,"Arbon, Bündnerhof",9.42867,47.51073,"Bus"
8581389,"Arbon, Friedenstrasse",9.43223,47.51517,"Bus"
8510057,"Arbon, Frohmattstrasse",9.42382,47.51917,"Bus"
8557031,"Arbon, Kupferwiese",9.42187,47.49904,"Bus"
8580870,"Arbon, Landquartstrasse",9.427,47.50595,"Bus"
8574248,"Arbon, Romanshornerstrasse",9.42544,47.51895,"Bus"
8587152,"Arbon, Scheidweg",9.41485,47.52077,"Bus"
8574250,"Arbon, Schloss",9.43634,47.51553,"Bus"
8587153,"Arbon, Seemoosholz",9.41976,47.5198,"Bus"
8574249,"Arbon, Stahelplatz",9.43148,47.51679,"Bus"
8506255,"Arbon, Wildpark",9.42358,47.50988,"Bus"
8507641,"Arcegno, Altisio",8.7463,46.16137,"Bus"
8505454,"Arcegno, Chiesa",8.74327,46.16226,"Bus"
8587766,"Arcegno, Cruglio",8.74237,46.16005,"Bus"
8577918,"Arch, Aarestrasse",7.42343,47.16728,"Bus"
8577935,"Arch, Arche",7.42772,47.16724,"Bus"
8577928,"Arch, Bahnhofstrasse",7.42058,47.16292,"Bus"
8577766,"Arconciel, Pelleret",7.12204,46.73985,"Bus"
8504608,"Arconciel, Rialet",7.13535,46.75117,"Bus"
8577767,"Arconciel, Sur-le-Moulin",7.12932,46.7388,"Bus"
8504941,"Arconciel, village",7.12396,46.74544,"Bus"
8509266,"Ardez",10.20105,46.77354,"Zug"
8584712,"Ardez, Bahnhof",10.20123,46.77347,"Bus"
8581817,"Ardez, Bröl",10.20381,46.77521,"Bus"
8501505,"Ardon",7.27093,46.20859,"Zug"
8573907,"Ardon, Arnica",7.25367,46.20769,"Bus"
8501328,"Ardon, centre",7.25792,46.21154,"Bus"
8510794,"Ardon, gare",7.2708,46.20874,"Bus"
8581947,"Arenenberg, Schloss",9.06006,47.6717,"Bus"
8594231,"Areuse Les Isles Littorail",6.84859,46.95422,"Zug"
8595245,"Areuse Littorail",6.85307,46.9545,"Zug"
8579640,"Areuse Littorail, gare",6.85312,46.95443,"Bus"
8595246,"Areuse, Les Isles",6.84752,46.95482,"Bus"
8502498,"Areuse, giratoire",6.85518,46.95552,"Bus"
8574609,"Arezen, Fatscha",9.33878,46.78,"Bus"
8574608,"Arezen, alte Post",9.34182,46.784,"Bus"
8570833,"Argnou (Ayent), Les Frisses",7.40112,46.26216,"Bus"
8570834,"Argnou (Ayent), centre",7.39991,46.26301,"Bus"
8580659,"Argnou (Ayent), d'en Haut",7.3967,46.2635,"Bus"
8579714,"Arisdorf, Hofacker",7.76483,47.50649,"Bus"
8572238,"Arisdorf, Kreuz",7.76478,47.50233,"Bus"
8500984,"Arisdorf, Olsbergerstrasse",7.7652,47.51301,"Bus"
8572239,"Arisdorf, Schulhaus",7.76551,47.50986,"Bus"
8572237,"Arisdorf, Weieren",7.76671,47.49767,"Bus"
8502566,"Aristau, Althäusern",8.35991,47.29447,"Bus"
8502565,"Aristau, Birri",8.36223,47.27919,"Bus"
8502577,"Aristau, Dorf",8.36205,47.28627,"Bus"
8593501,"Arlesheim, Aliothstrasse",7.61322,47.50929,"Bus"
8593497,"Arlesheim, Altenmatteweg",7.60982,47.49349,"Bus"
8588759,"Arlesheim, Baselstrasse",7.61899,47.50171,"Bus_Tram"
8593498,"Arlesheim, Birsweg",7.60882,47.49748,"Bus"
8578226,"Arlesheim, Dom",7.61841,47.4922,"Bus"
8500077,"Arlesheim, Dorf",7.61889,47.49446,"Bus_Tram"
8588764,"Arlesheim, Im Lee",7.61933,47.49747,"Bus_Tram"
8578225,"Arlesheim, Obesunne",7.61689,47.49017,"Bus"
8593499,"Arlesheim, Schorenweg",7.61055,47.50561,"Bus"
8588765,"Arlesheim, Stollenrain",7.61138,47.49303,"Bus_Tram"
8589236,"Arlesheim, Walzwerk",7.61727,47.50785,"Tram"
8506211,"Arnegg",9.25202,47.442,"Zug"
8573958,"Arnegg, Bahnhof",9.25235,47.44258,"Bus"
8582019,"Arnegg, Geretschwilerstrasse",9.2543,47.43893,"Bus"
8587329,"Arnegg, Restaurant Ilge",9.25533,47.44227,"Bus"
8573957,"Arnegg, Weideggstrasse",9.25623,47.4432,"Bus"
8501107,"Arnex",6.5189,46.69808,"Zug"
8579106,"Arnex, gare",6.51914,46.69803,"Bus"
8576379,"Arnex, poste",6.51908,46.69485,"Bus"
8579310,"Arnex-sur-Nyon",6.19335,46.37474,"Bus"
8503598,"Arni AG, Dorf",8.41971,47.31839,"Bus"
8573720,"Arni AG, Stockacker",8.42389,47.32003,"Bus"
8508750,"Arni BE, Dorf",7.66488,46.93493,"Bus"
8571771,"Arni BE, Hämlismatt",7.65333,46.94072,"Bus"
8508880,"Arni BE, Matte",7.67391,46.93459,"Bus"
8571751,"Arni BE, Schwendelweg",7.67981,46.93754,"Bus"
8571770,"Arni BE, Tanne",7.64814,46.94712,"Bus"
8571750,"Arni BE, Walke",7.64104,46.93088,"Bus"
8530693,"Arni UR",8.65139,46.77802,"Kabinenbahn"
8530435,"Arnisee",8.64234,46.7692,"Kabinenbahn"
8508751,"Arnisäge BE, Post",7.65031,46.93395,"Bus"
8575705,"Arnorengo",8.71503,46.50952,"Bus"
8531260,"Arnouva (télécabine amont)",7.47746,46.31766,"Kabinenbahn"
8531261,"Arnouva (télésiège aval)",7.47876,46.31848,"Sesselbahn"
8575914,"Arogno, Cà Nova",8.9873,45.95039,"Bus"
8575917,"Arogno, Cà del Ferée",8.99168,45.96017,"Bus"
8575913,"Arogno, La Cassina",8.98736,45.94664,"Bus"
8575915,"Arogno, Nebbia",8.98854,45.95275,"Bus"
8505967,"Arogno, Paese",8.98771,45.95852,"Bus"
8505622,"Arogno, S. Michele",8.98963,45.95484,"Bus"
8575916,"Arogno, Sasso Grosso",8.99302,45.9576,"Bus"
8587765,"Aroleid",7.71936,45.99644,"Kabinenbahn"
8570912,"Arolla, La Gouille",7.49031,46.05357,"Bus"
8570915,"Arolla, La Monta",7.48482,46.03084,"Bus"
8570916,"Arolla, Magine",7.48159,46.02181,"Bus"
8580442,"Arolla, Mt-Collon",7.48197,46.02351,"Bus"
8570914,"Arolla, Pramousse",7.48771,46.04037,"Bus"
8570913,"Arolla, Satarma",7.48844,46.048,"Bus"
8501750,"Arolla, poste",7.48123,46.02579,"Bus"
8509157,"Arosa",9.67933,46.78329,"Zug"
8509282,"Arosa (Mittelstation)Weisshorn",9.66315,46.7864,"Kabinenbahn"
8531054,"Arosa (Talstation Tschuggen)",9.67823,46.78296,"Sesselbahn"
8509158,"Arosa (Talstation) Hörnli",9.65968,46.77265,"Kabinenbahn"
8509160,"Arosa (Talstation) Weisshorn",9.6786,46.78359,"Kabinenbahn"
8531060,"Arosa Bänkli",9.63576,46.7865,"Sesselbahn"
8531057,"Arosa Geisstobel",9.64933,46.77527,"Sesselbahn"
8531059,"Arosa Kirchli",9.6594,46.77846,"Sesselbahn"
8531056,"Arosa Schönboden",9.63522,46.77097,"Sesselbahn"
8594668,"Arosa, Alteinplatz",9.68492,46.78259,"Bus"
8594670,"Arosa, Bahnhof",9.67954,46.78396,"Bus"
8594662,"Arosa, Bellevue",9.67008,46.77636,"Bus"
8594661,"Arosa, Brüggli/Skischule",9.66526,46.77582,"Bus"
8594659,"Arosa, Gada",9.66177,46.77456,"Bus"
8594677,"Arosa, Gollrad",9.68183,46.78873,"Bus"
8594658,"Arosa, Hörnli",9.65872,46.77266,"Bus"
8594660,"Arosa, Kulm",9.66478,46.77468,"Bus"
8594678,"Arosa, Langlauf/Golf",9.68221,46.79168,"Bus"
8594679,"Arosa, Maran",9.68157,46.79288,"Bus"
8594671,"Arosa, Obersee",9.68034,46.78638,"Bus"
8594669,"Arosa, Ochsenbühl",9.68273,46.78297,"Bus"
8594680,"Arosa, Prätschli",9.67526,46.79093,"Bus"
8594663,"Arosa, Rathaus",9.67524,46.77745,"Bus"
8594673,"Arosa, Sandhubel",9.68571,46.78257,"Bus"
8594674,"Arosa, Seeboden",9.68566,46.78318,"Bus"
8594676,"Arosa, Seehalde",9.68487,46.78715,"Bus"
8594675,"Arosa, Seilpark",9.68544,46.78533,"Bus"
8594672,"Arosa, Surlej",9.68271,46.78638,"Bus"
8594666,"Arosa, Untersee",9.68409,46.77901,"Bus"
8594665,"Arosa, Weisshornbahn/Skischule",9.67994,46.78222,"Bus"
8594667,"Arosa, Wetterweide",9.68581,46.78023,"Bus"
8594664,"Arosa, Zentrum",9.67778,46.77911,"Bus"
8575363,"Arosio, Bassa",8.90172,46.0466,"Bus"
8575364,"Arosio, Bivio per Arosio",8.89771,46.04813,"Bus"
8575362,"Arosio, Cappella di Toma",8.90593,46.04578,"Bus"
8575361,"Arosio, Cimaronco",8.91228,46.041,"Bus"
8575365,"Arosio, Paese",8.89993,46.04828,"Bus"
8531477,"Arpalle",7.10763,45.92943,"Sesselbahn"
8507651,"Arrissoules, village",6.77974,46.79865,"Bus"
8505060,"Arth am See (Schiff)",8.52232,47.0647,"Schiff"
8577410,"Arth, Aazopf",8.52581,47.06791,"Bus"
8577409,"Arth, Am See",8.52288,47.06464,"Bus"
8577411,"Arth, Chäppeli",8.52756,47.06951,"Bus"
8577408,"Arth, Dorf",8.52362,47.0619,"Bus"
8577406,"Arth, Feld",8.53039,47.05921,"Bus"
8588906,"Arth, Klostermatt",8.52473,47.06648,"Bus"
8577413,"Arth, Rötlen",8.52321,47.08251,"Bus"
8577412,"Arth, Tafelstatt",8.52826,47.07167,"Bus"
8505004,"Arth-Goldau",8.54945,47.04904,"Zug"
8505063,"Arth-Goldau RB",8.54777,47.04888,"Zahnradbahn"
8577398,"Arth-Goldau, Bahnhof",8.54885,47.04942,"Bus"
8581240,"Artore, Paese",9.0324,46.19017,"Bus"
8509992,"Arvenbüel, Arven",9.17382,47.14726,"Bus"
8578502,"Arvenbüel, Obern",9.16658,47.14767,"Bus"
8530326,"Arvengarten (Arven)",7.97317,46.58965,"Sesselbahn"
8530941,"Arvengarten (Eiger)",7.9743,46.59053,"Sesselbahn"
8530940,"Arvengarten (Honegg)",7.97403,46.59027,"Sesselbahn"
8501494,"Arveyes",7.06269,46.29125,"Zug"
8510587,"Arveyes, Regina",7.05889,46.29115,"Bus"
8510586,"Arveyes, gare",7.06288,46.29122,"Bus"
8530446,"Arvigo (Funivia)",9.11433,46.3,"Kabinenbahn"
8580096,"Arvigo, Al Canton",9.11418,46.30278,"Bus"
8580098,"Arvigo, Filovia",9.11411,46.29978,"Bus"
8505879,"Arvigo, Paese",9.11499,46.30064,"Bus"
8501063,"Arzier",6.21164,46.45865,"Zug"
8510725,"Arzier, gare",6.21129,46.45858,"Bus"
8575638,"Arzo, Bagno Spiaggia",8.94906,45.87874,"Bus"
8580080,"Arzo, Coop",8.94619,45.87378,"Bus"
8575636,"Arzo, Posta",8.94364,45.87528,"Bus"
8575637,"Arzo, San Grato",8.94604,45.87626,"Bus"
8583238,"Arzo, Scuole",8.93794,45.87502,"Bus"
8583834,"Arzo, Via Rossi",8.93969,45.87434,"Bus"
8575085,"Ascharina, Alpbachbrücke",9.80448,46.95971,"Bus"
8508024,"Ascharina, Alpstrasse",9.81009,46.96029,"Bus"
8508022,"Ascharina, Bartlischhus",9.80639,46.95323,"Bus"
8510201,"Ascharina, Bellawiese",9.81057,46.96249,"Bus"
8508026,"Ascharina, Gürgetsch",9.81335,46.96666,"Bus"
8508020,"Ascharina, Tola",9.80635,46.9576,"Bus"
8509734,"Ascharina, alte Post",9.80204,46.9527,"Bus"
8505573,"Ascona (lago)",8.76872,46.15378,"Schiff"
8591508,"Ascona, Aeroporto",8.78156,46.15353,"Bus"
8591509,"Ascona, Albergo Ascona",8.76988,46.1589,"Bus"
8591510,"Ascona, Autosilo",8.77108,46.15648,"Bus"
8591511,"Ascona, Bagno pubblico",8.77894,46.14973,"Bus"
8591512,"Ascona, Baraggie",8.77221,46.15884,"Bus"
8506522,"Ascona, Borgo",8.77012,46.15738,"Bus"
8591513,"Ascona, Canneto",8.76655,46.15718,"Bus"
8591514,"Ascona, Casa Angolo",8.76457,46.15746,"Bus"
8591515,"Ascona, Casa Cristoforo",8.76146,46.15578,"Bus"
8591516,"Ascona, Case Saleggi",8.78656,46.15382,"Bus"
8505850,"Ascona, Centro",8.77107,46.15553,"Bus"
8507217,"Ascona, Fiume Maggia",8.78169,46.16188,"Bus"
8591517,"Ascona, Lido",8.78073,46.14914,"Bus"
8591518,"Ascona, Manor Delta",8.77442,46.16287,"Bus"
8591519,"Ascona, Mirador",8.77757,46.15034,"Bus"
8591520,"Ascona, Monte Verità",8.76237,46.15758,"Bus"
8505853,"Ascona, Moscia",8.74786,46.15139,"Bus"
8591521,"Ascona, Palestre",8.77803,46.1576,"Bus"
8591527,"Ascona, Parco dei Poeti",8.77349,46.15694,"Bus"
8578910,"Ascona, San Materno",8.77424,46.16028,"Bus"
8591522,"Ascona, Scuole",8.77403,46.15432,"Bus"
8591523,"Ascona, Solaria",8.7686,46.1581,"Bus"
8591524,"Ascona, Sonnenhof",8.79044,46.15144,"Bus"
8591525,"Ascona, Terreni alla Maggia",8.7893,46.15262,"Bus"
8591526,"Ascona, Via Badiola",8.77767,46.15221,"Bus"
8591528,"Ascona, Via Medere",8.7753,46.16013,"Bus"
8591529,"Ascona, Via Pancaldi Mola",8.778,46.15444,"Bus"
8591530,"Ascona, Via Pascolo",8.77802,46.15954,"Bus"
8591531,"Ascona, Via Patrizia",8.78128,46.15126,"Bus"
8500591,"Asp AG, Abzw.",8.05376,47.44609,"Bus"
8501172,"Assens",6.62053,46.61315,"Zug"
8507624,"Assens, gare",6.62083,46.6133,"Bus"
8575848,"Astano, La Bolla",8.82675,46.01147,"Bus"
8505751,"Astano, Paese",8.81758,46.01198,"Bus"
8583346,"Asuel, La Malcôte",7.19474,47.39999,"Bus"
8572095,"Asuel, Maison communale",7.2114,47.39848,"Bus"
8572094,"Asuel, école",7.21081,47.40201,"Bus"
8592638,"Athenaz, Passeiry",6.00384,46.15675,"Bus"
8587030,"Athenaz, village",6.00698,46.15459,"Bus"
8592632,"Athenaz, école",6.00408,46.15529,"Bus"
8579193,"Attalens, Corcelles",6.84906,46.51255,"Bus"
8595678,"Attalens, Fin du Clos",6.84732,46.51569,"Bus"
8579191,"Attalens, La Fin",6.85047,46.50627,"Bus"
8510497,"Attalens, Montessinge",6.84524,46.51219,"Bus"
8504957,"Attalens, Perrey",6.85241,46.49353,"Bus"
8504960,"Attalens, village",6.84861,46.51017,"Bus"
8581055,"Attelwil, Schule",8.04432,47.25801,"Bus"
8502096,"Attelwil, alte Post",8.04471,47.26093,"Bus"
8530414,"Attinghausen (Luftseilbahn)",8.62883,46.86133,"Kabinenbahn"
8593514,"Attinghausen, Galliried",8.62752,46.86305,"Bus"
8593515,"Attinghausen, Plätzli",8.6277,46.86643,"Bus"
8577394,"Attinghausen, Post",8.63179,46.86323,"Bus"
8505668,"Attinghausen, Seilbahn",8.62899,46.86138,"Bus"
8500286,"Attiswil",7.61389,47.2464,"Zug"
8589915,"Attiswil, Post",7.61458,47.24719,"Bus"
8530478,"Atzmännig (Bergstation)",9.01061,47.27935,"Sesselbahn"
8530477,"Atzmännig Schutt (Talstation)",8.9971,47.28531,"Sesselbahn"
8578504,"Atzmännig, Atzmännigstrasse",8.98819,47.28735,"Bus"
8503763,"Atzmännig, Schutt",8.99602,47.28454,"Bus"
8506316,"Au SG",9.64126,47.43612,"Zug"
8510934,"Au SG, Bahnhof",9.64118,47.43613,"Bus"
8578428,"Au SG, Gemeindehaus",9.63499,47.43393,"Bus"
8506443,"Au SG, Monstein",9.63911,47.43745,"Bus"
8578429,"Au SG, Oberdorf",9.6347,47.43046,"Bus"
8578430,"Au SG, Zinggen",9.63694,47.42468,"Bus"
8503205,"Au ZH",8.64372,47.24681,"Zug"
8590489,"Au ZH, Alte Landstrasse",8.63505,47.24712,"Bus"
8590490,"Au ZH, Appital",8.64486,47.24054,"Bus"
8590491,"Au ZH, Aubrücke",8.64996,47.24581,"Bus"
8590492,"Au ZH, Austrasse",8.64824,47.24519,"Bus"
8590493,"Au ZH, Bahnhof",8.64431,47.24651,"Bus"
8590494,"Au ZH, Grundstein",8.65484,47.24217,"Bus"
8590495,"Au ZH, Gwad",8.65757,47.23951,"Bus"
8590496,"Au ZH, Moosacher",8.63926,47.2404,"Bus"
8590497,"Au ZH, Naglikonerweg",8.63544,47.24801,"Bus"
8590498,"Au ZH, Schützenhaus",8.64533,47.24167,"Bus"
8590499,"Au ZH, Seeguet",8.63344,47.24915,"Bus"
8590500,"Au ZH, Stoffelstrasse",8.65102,47.24147,"Bus"
8590501,"Au ZH, Strandbad",8.65891,47.24034,"Bus"
8590502,"Au ZH, Unter Ort",8.63205,47.24824,"Bus"
8501865,"Aubonne, Bougy-St-Martin",6.38508,46.4935,"Bus"
8570045,"Aubonne, Curzilles",6.379,46.49015,"Bus"
8501868,"Aubonne, La Levette",6.40047,46.4851,"Bus"
8501867,"Aubonne, La Praz",6.39934,46.48884,"Bus"
8579081,"Aubonne, Le Bornalet",6.39589,46.49159,"Bus"
8583458,"Aubonne, Pré-Baulan",6.36908,46.49573,"Bus"
8579080,"Aubonne, Roveray",6.40104,46.48127,"Bus"
8570049,"Aubonne, Sermaret",6.39069,46.49957,"Bus"
8501870,"Aubonne, gare",6.39294,46.49385,"Bus"
8570046,"Aubonne, hôpital",6.38954,46.49269,"Bus"
8580894,"Auenstein, Eggen",8.13558,47.41771,"Bus"
8572466,"Auenstein, Fahr",8.15115,47.4154,"Bus"
8572467,"Auenstein, Gemeindehaus",8.13676,47.4163,"Bus"
8580895,"Auenstein, Hausacher",8.14106,47.41748,"Bus"
8502557,"Auenstein, Kirche",8.14124,47.41616,"Bus"
8580896,"Auenstein, Obermatt",8.13922,47.4197,"Bus"
8580897,"Auenstein, Rütigasse",8.13256,47.41653,"Bus"
8577957,"Auenstein, Steinbr. Jakobsberg",8.15669,47.41825,"Bus"
8580899,"Auenstein, Wiweg",8.12909,47.41605,"Bus"
8505981,"Augio, Paese",9.12659,46.36419,"Bus"
8580090,"Augio, Tarco",9.12611,46.36807,"Bus"
8530640,"Augst BL Kraftwerk",7.71228,47.53757,"Schiff"
8510505,"Augst BL, Langgass",7.71952,47.53568,"Bus"
8578347,"Augst BL, Schwarzacker",7.72708,47.53129,"Bus"
8500854,"Augst BL, Stundeglas",7.71205,47.53497,"Bus"
8518850,"Aulendorf",9.6438,47.95301,"Zug"
8504689,"Auliens, halte",7.02603,46.28376,"Bus"
8504718,"Aumont, village",6.85127,46.79772,"Bus"
8506913,"Aumont, école",6.84967,46.79724,"Bus"
8575481,"Auressio, Paese",8.6835,46.20117,"Bus"
8557052,"Auressio, Ri del Vò",8.67978,46.20763,"Bus"
8579093,"Auressio, Ronchetto",8.68892,46.19919,"Bus"
8505477,"Aurigeno-Moghegno",8.71435,46.24006,"Bus"
8595261,"Auslikon, Ober Balm",8.81702,47.34185,"Bus"
8583486,"Auslikon, Schulhausstrasse",8.80724,47.34364,"Bus"
8507472,"Ausserberg",7.84416,46.31234,"Zug"
8571082,"Ausserberg, Abzw. St. German",7.8401,46.30925,"Bus"
8571086,"Ausserberg, Bahnhof",7.84226,46.31244,"Bus"
8571084,"Ausserberg, Brandenhütten",7.85295,46.31152,"Bus"
8571081,"Ausserberg, Chronufluo",7.84947,46.30864,"Bus"
8571088,"Ausserberg, Distern",7.84906,46.31304,"Bus"
8571089,"Ausserberg, Dorf",7.85117,46.31459,"Bus"
8571083,"Ausserberg, Giblätt",7.84601,46.30922,"Bus"
8571085,"Ausserberg, Hohtenn",7.84752,46.31096,"Bus"
8571087,"Ausserberg, Stapfa",7.8462,46.31253,"Bus"
8505743,"Ausserbinn, Dorfplatz",8.14846,46.38172,"Bus"
8578898,"Ausserbinn, Hubel",8.15089,46.37673,"Bus"
8579365,"Ausserbinn, Wengi",8.14189,46.38339,"Bus"
8571372,"Ausserortschwaben",7.40903,46.98762,"Bus"
8574886,"Ausserpraden, Hedwig",9.577,46.82493,"Bus"
8574885,"Ausserpraden, Krone",9.57431,46.82531,"Bus"
8504719,"Autavaux, bif.",6.88238,46.86325,"Bus"
8504791,"Autigny, Café de l'Ecu",7.02227,46.73625,"Bus"
8570500,"Autigny, En Verdau",7.02443,46.73943,"Bus"
8570501,"Autigny, Le Bas",7.02675,46.73265,"Bus"
8510872,"Autigny, église",7.02037,46.7366,"Bus"
8504219,"Auvernier",6.87771,46.97965,"Zug"
8504552,"Auvernier (bateau)",6.88156,46.97384,"Schiff"
8504510,"Auvernier Littorail",6.8789,46.97424,"Zug"
8502496,"Auvernier Littorail, gare",6.87846,46.97492,"Bus"
8594862,"Auvernier, Pacotte",6.87288,46.9757,"Bus"
8594861,"Auvernier, gare",6.87902,46.97959,"Bus"
8577136,"Auw, Altersheim",8.37222,47.20849,"Bus"
8577134,"Auw, Mitteldorf",8.36424,47.21138,"Bus"
8577133,"Auw, Oberdorf",8.36094,47.20956,"Bus"
8577135,"Auw, Unterdorf",8.36876,47.21013,"Bus"
8578888,"Avegno di fuori",8.74497,46.20096,"Bus"
8587745,"Avegno, Grotti",8.74517,46.21095,"Bus"
8505474,"Avegno, Paese",8.74283,46.20569,"Bus"
8570718,"Aven, Courtenaz",7.24337,46.26897,"Bus"
8580665,"Aven, La Croix",7.27281,46.23585,"Bus"
8580663,"Aven, Lac Bleu",7.23091,46.28297,"Bus"
8583434,"Aven, Le Brésil",7.24433,46.2604,"Bus"
8580662,"Aven, Le Creux-d'Ortcheu",7.2747,46.23601,"Bus"
8570717,"Aven, Maduc",7.25351,46.24843,"Bus"
8570719,"Aven, Motélon",7.23503,46.27534,"Bus"
8582263,"Aven, pl. St-Bernard",7.25911,46.23119,"Bus"
8570716,"Aven, village",7.27126,46.23637,"Bus"
8504126,"Avenches",7.04093,46.88461,"Zug"
8504570,"Avenches Plage",7.04864,46.90569,"Schiff"
8583514,"Avenches, Bibracte",7.03897,46.87669,"Bus"
8510877,"Avenches, Bois de Châtel",7.04325,46.86754,"Bus"
8579799,"Avenches, Collège Sous-Ville",7.03719,46.87946,"Bus"
8583895,"Avenches, EMS Marc-Aurèle",7.04414,46.88155,"Bus"
8577825,"Avenches, Faubourg",7.04231,46.87815,"Bus"
8570515,"Avenches, Haras Fédéral",7.02011,46.88613,"Bus"
8583894,"Avenches, Hôtel de Ville",7.0405,46.87991,"Bus"
8583517,"Avenches, Joli-Val",7.04224,46.87612,"Bus"
8580759,"Avenches, L'Eau-Noire",7.04457,46.90211,"Bus"
8583723,"Avenches, Le Paon",7.03354,46.87663,"Bus"
8583516,"Avenches, Milavy",7.03181,46.8767,"Bus"
8583518,"Avenches, Montmezard",7.03893,46.87887,"Bus"
8583519,"Avenches, Pré-Vert",7.04615,46.88588,"Bus"
8570514,"Avenches, gare",7.04125,46.88465,"Bus"
8583515,"Avenches, plage",7.04787,46.90115,"Bus"
8504781,"Avenches, poste",7.03965,46.88093,"Bus"
8583520,"Avenches, route du Lac",7.05251,46.89492,"Bus"
8574726,"Avers, Abzw. Valle di Lei",9.47324,46.49569,"Bus"
8574731,"Avers, Am Bach",9.53766,46.45829,"Bus"
8574727,"Avers, Campsut",9.47807,46.48693,"Bus"
8509766,"Avers, Cresta",9.51212,46.47294,"Bus"
8574728,"Avers, Cröt",9.48547,46.47804,"Bus"
8509307,"Avers, Juf",9.57996,46.44535,"Bus"
8574732,"Avers, Juppa",9.54817,46.45216,"Bus"
8574729,"Avers, Lezibrücke",9.4936,46.47747,"Bus"
8574734,"Avers, Podestats Haus",9.55801,46.44867,"Bus"
8574730,"Avers, Pürt",9.52575,46.46503,"Bus"
8574733,"Avers, Rufana",9.55396,46.44966,"Bus"
8501632,"Avry-Matran",7.08044,46.78603,"Zug"
8504904,"Avry-devant-Pont, La Cantine",7.096,46.68638,"Bus"
8504042,"Avry-devant-Pont, village",7.08675,46.68566,"Bus"
8503718,"Avry-sur-Matran, CO",7.07752,46.78622,"Bus"
8577797,"Avry-sur-Matran, Courtaney",7.07103,46.79331,"Bus"
8588347,"Avry-sur-Matran, Fontanettes",7.06858,46.78454,"Bus"
8577798,"Avry-sur-Matran, La Sonnaz",7.06229,46.79311,"Bus"
8595090,"Avry-sur-Matran, Les Agges",7.07447,46.78814,"Bus"
8508298,"Avry-sur-Matran, Marie-Favre",7.07017,46.79141,"Bus"
8577791,"Avry-sur-Matran, bif.",7.07572,46.78729,"Bus"
8577790,"Avry-sur-Matran, centre com.",7.07883,46.78638,"Bus"
8504974,"Avry-sur-Matran, village",7.07184,46.78842,"Bus"
8588346,"Avry-sur-Matran, école",7.07098,46.78713,"Bus"
8595953,"Avully, Bachères",5.99214,46.16459,"Bus"
8592634,"Avully, Eaumorte hameau",6.01912,46.16329,"Bus"
8592630,"Avully, Gennecy",5.99593,46.16828,"Bus"
8592628,"Avully, Martinet",5.98643,46.1587,"Bus"
8592629,"Avully, Printanière",6.0055,46.17367,"Bus"
8592631,"Avully, Touvière",5.99805,46.17512,"Bus"
8587031,"Avully, village",6.00108,46.16959,"Bus"
8592627,"Avully, école",6.00512,46.1672,"Bus"
8595011,"Avusy, Creux-du-Loup",5.99578,46.15186,"Bus"
8592635,"Avusy, La Tuiliere",6.00644,46.14919,"Bus"
8592637,"Avusy, Les Quoattes",5.99536,46.1528,"Bus"
8595012,"Avusy, Moulin de la Grave",5.99375,46.15038,"Bus"
8592639,"Avusy, Sur-le-Moulin",6.01929,46.1437,"Bus"
8587032,"Avusy, village",5.99347,46.15185,"Bus"
8531144,"Axalp (Talstation Windegg)",8.03746,46.71845,"Sesselbahn"
8587024,"Axalp, Bellevue",8.03706,46.72393,"Bus"
8508752,"Axalp, Sportbahnen",8.03759,46.71872,"Bus"
8587235,"Axalp, Totzweg",8.04314,46.72371,"Bus"
8570951,"Ayer, Blanche Pierre",7.59856,46.18285,"Bus"
8505685,"Ayer, Cuimey",7.59109,46.20513,"Bus"
8582214,"Ayer, Les Grands Praz",7.60953,46.17046,"Bus"
8570953,"Ayer, Les Morasses",7.6094,46.16687,"Bus"
8570952,"Ayer, Prarrayer",7.60085,46.18001,"Bus"
8505698,"Ayer, Val d'Uccle",7.59582,46.18462,"Bus"
8501752,"Ayer, anc. poste",7.60434,46.17709,"Bus"
8574333,"Azmoos, Feld",9.47767,47.07607,"Bus"
8574334,"Azmoos, Gatina",9.47665,47.08399,"Bus"
8509659,"Azmoos, Rathaus",9.47657,47.08045,"Bus"
8502206,"Baar",8.52327,47.19536,"Zug"
8583738,"Baar (Nendaz), La Mury",7.32302,46.19777,"Bus"
8570856,"Baar (Nendaz), village",7.33229,46.2055,"Bus"
8515993,"Baar Lindenpark",8.51706,47.18313,"Zug"
8515992,"Baar Neufeld",8.51779,47.18849,"Zug"
8593396,"Baar, Altgasse",8.51961,47.19176,"Bus"
8588700,"Baar, Arbach",8.52963,47.17605,"Bus"
8573187,"Baar, Bachtalerhöhe",8.51043,47.20992,"Bus"
8502798,"Baar, Bahnhof",8.52392,47.19549,"Bus"
8573190,"Baar, Bahnmatt",8.5238,47.19672,"Bus"
8593397,"Baar, Blegistrasse",8.56728,47.21455,"Bus"
8502799,"Baar, Brauerei",8.53476,47.19628,"Bus"
8593398,"Baar, Büelplatz",8.52867,47.19544,"Bus"
8589488,"Baar, Chriesimatt",8.53365,47.19378,"Bus"
8593399,"Baar, EW",8.53163,47.19529,"Bus"
8593400,"Baar, Früebergstrasse",8.52213,47.19838,"Bus"
8507268,"Baar, Geissbüel",8.53935,47.18863,"Bus"
8589202,"Baar, Grund",8.52993,47.19273,"Bus"
8587723,"Baar, Hof Himmelrich",8.53689,47.19087,"Bus"
8587374,"Baar, Kantonsspital",8.51935,47.19454,"Bus"
8581534,"Baar, Kreuzplatz",8.52621,47.1952,"Bus"
8589204,"Baar, Lindenhof",8.52342,47.19358,"Bus"
8502970,"Baar, Lättich",8.538,47.20081,"Bus"
8577563,"Baar, Lättichstrasse",8.5385,47.19859,"Bus"
8593403,"Baar, Metro",8.51412,47.19063,"Bus"
8577531,"Baar, Moosrank (Höllgrotten)",8.54837,47.17834,"Bus"
8502694,"Baar, Oberdorf",8.53054,47.19672,"Bus"
8593406,"Baar, Oberneuhof",8.5158,47.18862,"Bus"
8588718,"Baar, Paradies",8.5378,47.19689,"Bus"
8577566,"Baar, Pfaffentobel",8.57239,47.2158,"Bus"
8502787,"Baar, Rathaus",8.52548,47.1943,"Bus"
8577564,"Baar, Ruessen",8.5623,47.21311,"Bus"
8593407,"Baar, Schochenmühle",8.50047,47.18748,"Bus"
8593408,"Baar, St. Martin",8.52289,47.19246,"Bus"
8502788,"Baar, Stadtgrenze",8.52047,47.18491,"Bus"
8577561,"Baar, Südstrasse",8.52189,47.18936,"Bus"
8502282,"Baar, Talacher",8.54517,47.17662,"Bus"
8502296,"Baar, Tobelbrücke-Höllgrotten",8.55288,47.17947,"Bus"
8573189,"Baar, Waldmannhalle",8.51989,47.19983,"Bus"
8502971,"Baar, Walterswil",8.55578,47.21102,"Bus"
8580619,"Bachenbülach, Bramenländli",8.53896,47.50352,"Bus"
8580620,"Bachenbülach, Bramenstrasse",8.54122,47.50477,"Bus"
8573206,"Bachenbülach, Schmiede",8.54499,47.50086,"Bus"
8503781,"Bachenbülach, alte Post",8.54597,47.50525,"Bus"
8573268,"Bachs, Alt-Bachs",8.43913,47.52377,"Bus"
8573269,"Bachs, Milchhütte",8.43819,47.52692,"Bus"
8573270,"Bachs, Neu-Bachs",8.44155,47.52626,"Bus"
8573271,"Bachs, Weiherbach",8.44933,47.51918,"Bus"
8518798,"Bad Krozingen",7.69919,47.92077,"Zug"
8509004,"Bad Ragaz",9.50523,47.01031,"Zug"
8530503,"Bad Ragaz Matells (Talst.)",9.47353,47.01727,"Kabinenbahn"
8575114,"Bad Ragaz, Bahnhof",9.50507,47.01013,"Bus"
8582467,"Bad Ragaz, Bahnhofstrasse",9.50336,47.0066,"Bus"
8582611,"Bad Ragaz, Bidems",9.51992,46.99125,"Bus"
8594776,"Bad Ragaz, Casino",9.50615,47.00079,"Bus"
8574557,"Bad Ragaz, Dorfbad",9.50061,47.00277,"Bus"
8582473,"Bad Ragaz, Fluppi",9.51773,46.99503,"Bus"
8582474,"Bad Ragaz, Freihof",9.48056,47.02091,"Bus"
8582468,"Bad Ragaz, Im Ochsenbrunnen",9.49669,47.0086,"Bus"
8594777,"Bad Ragaz, Kreisel Ausserfeld",9.51157,46.99863,"Bus"
8582493,"Bad Ragaz, Maienfelderstrasse",9.50266,47.00255,"Bus"
8574561,"Bad Ragaz, Pizolbahn",9.47387,47.01703,"Bus"
8509697,"Bad Ragaz, Post",9.50038,47.00285,"Bus"
8586073,"Bad Ragaz, Schulhaus Kleinfeld",9.49861,47.00712,"Bus"
8582420,"Bad Ragaz, Sportplatz",9.50318,47.01759,"Bus"
8582470,"Bad Ragaz, St. Leonhard",9.49394,47.01329,"Bus"
8582595,"Bad Ragaz, Tamina Therme",9.50539,46.99986,"Bus"
8582740,"Bad Ragaz, Tobelbrücke",9.49981,46.99927,"Bus"
8582469,"Bad Ragaz, Zentrum",9.50007,47.00476,"Bus"
8518815,"Bad Säckingen",7.94974,47.55659,"Zug"
8503409,"Bad Zurzach",8.29559,47.58831,"Zug"
8572503,"Bad Zurzach, Bahnhof",8.29532,47.58821,"Bus"
8582513,"Bad Zurzach, Baslerstrasse",8.29278,47.5889,"Bus"
8582509,"Bad Zurzach, Dachsweg",8.30094,47.58272,"Bus"
8582510,"Bad Zurzach, Feldblumenweg",8.28216,47.59462,"Bus"
8582511,"Bad Zurzach, Fliederweg",8.28477,47.59308,"Bus"
8582508,"Bad Zurzach, Friedhof",8.3035,47.58009,"Bus"
8578779,"Bad Zurzach, Höfli",8.29181,47.58723,"Bus"
8572501,"Bad Zurzach, Oberflecken",8.29213,47.58504,"Bus"
8582515,"Bad Zurzach, Parkhotel",8.28876,47.59182,"Bus"
8578780,"Bad Zurzach, Promenade",8.29559,47.58643,"Bus"
8582516,"Bad Zurzach, Rathaus",8.29356,47.58765,"Bus"
8583655,"Bad Zurzach, Regibad",8.30678,47.58327,"Bus"
8582517,"Bad Zurzach, RehaClinic",8.28774,47.58966,"Bus"
8582518,"Bad Zurzach, Salzstrasse",8.2918,47.59308,"Bus"
8583442,"Bad Zurzach, Schlüsselstrasse",8.29078,47.58658,"Bus"
8578781,"Bad Zurzach, Seesteg",8.30459,47.58319,"Bus"
8572502,"Bad Zurzach, Thermalbad",8.29017,47.58875,"Bus"
8576763,"Bad Zurzach, Tierpark",8.28297,47.5808,"Bus"
8582519,"Bad Zurzach, Triumph",8.29895,47.58504,"Bus"
8582512,"Bad Zurzach, Tulpenweg",8.28683,47.59183,"Bus"
8582520,"Bad Zurzach, Turmhotel",8.28886,47.58898,"Bus"
8583441,"Bad Zurzach, Uf Raine",8.29479,47.59148,"Bus"
8582521,"Bad Zurzach, Zurzacher Hof",8.28904,47.58788,"Bus"
8503504,"Baden",8.30771,47.47642,"Zug"
8590164,"Baden, Alterszentrum",8.28666,47.46507,"Bus"
8502983,"Baden, Badener Tor",8.28999,47.4651,"Bus"
8590190,"Baden, Bahnhof Ost",8.30819,47.47657,"Bus"
8578914,"Baden, Bahnhof West",8.30694,47.47645,"Bus"
8590165,"Baden, Baldegg",8.27931,47.47041,"Bus"
8590166,"Baden, Baregg",8.28549,47.45655,"Bus"
8590167,"Baden, Belvédère",8.30009,47.47391,"Bus"
8590168,"Baden, Birkenweg",8.29601,47.47367,"Bus"
8578668,"Baden, Bruggerstrasse",8.3031,47.47885,"Bus"
8590169,"Baden, Brunnmatt",8.30614,47.46362,"Bus"
8510075,"Baden, Dammstrasse",8.30911,47.47884,"Bus"
8590394,"Baden, Dättwil Dorf",8.28477,47.45428,"Bus"
8590170,"Baden, Eichtal",8.28776,47.47351,"Bus"
8590172,"Baden, Freihof",8.31185,47.47889,"Bus"
8590171,"Baden, Föhrenweg",8.29162,47.47354,"Bus"
8590173,"Baden, Gartenstrasse",8.30493,47.47561,"Bus"
8590174,"Baden, Grand Casino",8.30986,47.47812,"Bus"
8590196,"Baden, Grosse Bäder",8.31218,47.4812,"Bus"
8572582,"Baden, Historisches Museum",8.31131,47.47304,"Bus"
8578671,"Baden, Ifang",8.28415,47.48348,"Bus"
8572581,"Baden, Kantonsschule",8.31419,47.47108,"Bus"
8578670,"Baden, Kapelle",8.28752,47.48343,"Bus"
8590175,"Baden, Kehl",8.28782,47.46378,"Bus"
8590176,"Baden, Kraftwerk",8.29356,47.48432,"Bus"
8590177,"Baden, Kreuzliberg",8.306,47.4661,"Bus"
8510074,"Baden, Kurtheater",8.30977,47.48032,"Bus"
8590178,"Baden, Langmatt",8.30725,47.481,"Bus"
8590179,"Baden, Liebenfels",8.3068,47.46056,"Bus"
8590180,"Baden, Lindeli",8.30304,47.47342,"Bus"
8572387,"Baden, Lindenplatz",8.30543,47.47115,"Bus"
8590181,"Baden, Müntzbergstrasse",8.28378,47.47522,"Bus"
8590182,"Baden, Münzlishausen",8.28097,47.47537,"Bus"
8590183,"Baden, Obere Kehlstrasse",8.29196,47.46819,"Bus"
8590184,"Baden, Oberstadt",8.3046,47.46973,"Bus"
8591709,"Baden, Pavillon",8.30348,47.48112,"Bus"
8590185,"Baden, Pinte",8.28601,47.45054,"Bus"
8572550,"Baden, Postautostation",8.30856,47.47747,"Bus"
8590186,"Baden, Roggebode",8.29643,47.48399,"Bus"
8578672,"Baden, Ruschebach",8.279,47.48233,"Bus"
8590187,"Baden, Römerstrasse",8.30142,47.48068,"Bus"
8590188,"Baden, Rüteli",8.28347,47.4521,"Bus"
8581719,"Baden, Rütihof Bohnacker",8.26984,47.43796,"Bus"
8578682,"Baden, Rütihof Haberacher",8.26434,47.43738,"Bus"
8581730,"Baden, Rütihof Moosstrasse",8.27182,47.43888,"Bus"
8590189,"Baden, Rütistrasse",8.30504,47.47423,"Bus"
8590191,"Baden, Schadenmühle",8.29912,47.46893,"Bus"
8578669,"Baden, Schellenacker",8.29341,47.48332,"Bus"
8590192,"Baden, Schlossbergplatz",8.30708,47.474,"Bus"
8572580,"Baden, Schulhausplatz",8.30786,47.4715,"Bus"
8590193,"Baden, Schwimmbad",8.31202,47.46677,"Bus"
8578683,"Baden, Segelhof",8.27829,47.4582,"Bus"
8502690,"Baden, Sonnmatt",8.29684,47.46834,"Bus"
8590194,"Baden, Spitalmatt",8.28895,47.46588,"Bus"
8590195,"Baden, St. Ursus",8.30279,47.47433,"Bus"
8580638,"Baden, Stein",8.30638,47.47388,"Bus"
8590197,"Baden, Trafo",8.30637,47.47809,"Bus"
8507585,"Baden, Utostrasse",8.31225,47.47037,"Bus"
8590199,"Baden, Ziegelhau",8.29306,47.46704,"Bus"
8571383,"Baggwil, Dorf",7.3169,47.02781,"Bus"
8571382,"Baggwil, Graben",7.31886,47.02191,"Bus"
8570570,"Bains-de-l'Alliaz",6.92719,46.48104,"Bus"
8501700,"Bains-de-l'Etivaz",7.13483,46.42531,"Bus"
8502025,"Baldegg",8.28024,47.18569,"Zug"
8516353,"Baldegg Kloster",8.28059,47.18061,"Zug"
8587100,"Baldegg, Bahnhof",8.28053,47.18581,"Bus"
8588979,"Baldegg, Kantonsschule",8.27783,47.18016,"Bus"
8578787,"Baldingen, Mitteldorf",8.31699,47.55507,"Bus"
8578788,"Baldingen, Oberdorf",8.31449,47.55506,"Bus"
8578786,"Baldingen, Unterdorf",8.31979,47.55545,"Bus"
8509454,"Balen-Gassaura, Alpenrösli",9.48575,46.98837,"Bus"
8509453,"Balen-Gassaura, Dorf",9.48317,46.9841,"Bus"
8505306,"Balerna",9.00504,45.84675,"Zug"
8580070,"Balerna, Bellavista (FFS)",9.0064,45.84663,"Bus"
8591480,"Balerna, Bisio",9.01283,45.8426,"Bus"
8580071,"Balerna, Croce Bianca",9.00633,45.85085,"Bus"
8583833,"Balerna, Industrie",9.00368,45.83965,"Bus"
8580078,"Balerna, Mercole",9.0031,45.85198,"Bus"
8580072,"Balerna, Mezzana",8.99871,45.85328,"Bus"
8575603,"Balerna, Passeggiata",9.00597,45.83779,"Bus"
8575628,"Balerna, Piazza",9.00766,45.84916,"Bus"
8591481,"Balerna, Pontegana",9.01693,45.84116,"Bus"
8589491,"Balerna, Prada",9.00558,45.84848,"Bus"
8591482,"Balerna, Rimessa AMSA",9.01875,45.84015,"Bus"
8589492,"Balerna, S. Antonio",9.00124,45.84574,"Bus"
8587265,"Balerna, Stazione",9.00418,45.84629,"Bus"
8575604,"Balerna, Via Ciseri",9.01305,45.83599,"Bus"
8589493,"Balerna, Via Motta",9.00534,45.8427,"Bus"
8589494,"Balerna, Via Sottobisio",9.00647,45.84513,"Bus"
8506455,"Balgach, Bad",9.60099,47.40436,"Bus"
8578456,"Balgach, Dorf",9.60889,47.40722,"Bus"
8578455,"Balgach, Ländern",9.61375,47.40914,"Bus"
8578454,"Balgach, Optik",9.61967,47.4096,"Bus"
8506456,"Balgach, Rathaus",9.60599,47.40673,"Bus"
8579096,"Ballaigues, Jura-Rosaly",6.42867,46.73291,"Bus"
8579906,"Ballaigues, Maillefer",6.41793,46.72941,"Bus"
8579094,"Ballaigues, Vers-chez-Barrat",6.40732,46.72873,"Bus"
8579908,"Ballaigues, collège",6.41516,46.73034,"Bus"
8579907,"Ballaigues, cure",6.41074,46.7291,"Bus"
8579095,"Ballaigues, poste",6.41381,46.72913,"Bus"
8570704,"Ballavaud",7.25908,46.21569,"Bus"
8508699,"Ballenberg Ost, Museum",8.0964,46.7496,"Bus"
8508698,"Ballenberg West, Museum",8.07881,46.75113,"Bus"
8501095,"Ballens",6.37445,46.55227,"Zug"
8510991,"Ballens, bif. Froideville",6.38624,46.55254,"Bus"
8510990,"Ballens, village",6.37564,46.55429,"Bus"
8501085,"Ballens-Froideville",6.39022,46.54967,"Zug"
8502023,"Ballwil",8.3169,47.15376,"Zug"
8582044,"Ballwil, Hochdorfstrasse",8.31703,47.15311,"Bus"
8505752,"Balm (Klausen)",8.83712,46.87227,"Bus"
8500750,"Balm b. Günsberg, Dorf",7.55933,47.25322,"Bus"
8581407,"Balm b. Meiringen, Brücke",8.17058,46.72734,"Bus"
8581554,"Balm b. Meiringen, Camping",8.17156,46.72559,"Bus"
8571593,"Balm b. Meiringen, Dorf",8.16548,46.7265,"Bus"
8570506,"Balm b. Meiringen, Ey",8.15174,46.73028,"Bus"
8581363,"Balm b. Meiringen, Schulhaus",8.159,46.72765,"Bus"
8579711,"Balm b. Meiringen, Urbachsey",8.17004,46.72931,"Bus"
8581364,"Balm b. Meiringen, Wirtschaft",8.16931,46.72673,"Bus"
8581479,"Balm b. Meiringen, Zaunstrasse",8.16138,46.72717,"Bus"
8508715,"Balm b. Messen, Wendeplatz",7.43047,47.1036,"Bus"
8572385,"Balmberg, Mittler-Balmberg",7.54125,47.2621,"Bus"
8572384,"Balmberg, Vorder-Balmberg",7.54413,47.26219,"Bus"
8500294,"Balsthal",7.69468,47.31319,"Zug"
8500674,"Balsthal, Bahnhof",7.69496,47.31346,"Bus"
8572316,"Balsthal, Brauerei",7.69949,47.31901,"Bus"
8572326,"Balsthal, Hinterrain",7.68055,47.31185,"Bus"
8572343,"Balsthal, Pfadiheim",7.71967,47.31946,"Bus"
8572314,"Balsthal, Post",7.69353,47.31395,"Bus"
8572317,"Balsthal, St. Wolfgang",7.70871,47.32175,"Bus"
8572325,"Balsthal, Thalbrücke",7.68858,47.30845,"Bus"
8572315,"Balsthal, Zentrum",7.69662,47.31595,"Bus"
8587019,"Baltenschwil AG",8.39266,47.39259,"Bus"
8588313,"Baltenswil",8.64172,47.43023,"Bus"
8578625,"Balterswil, Dorf",8.93704,47.45275,"Bus"
8587256,"Balterswil, Rietwies",8.93958,47.45449,"Bus"
8578626,"Balterswil, Schulhaus",8.9335,47.4513,"Bus"
8582008,"Baltschieder, Cavallo",7.8672,46.30441,"Bus"
8571079,"Baltschieder, Dorf",7.86503,46.30755,"Bus"
8571090,"Baltschieder, Erb",7.87115,46.30494,"Bus"
8571080,"Baltschieder, Hof",7.861,46.30933,"Bus"
8557146,"Baltschieder, Hofmatte",7.8591,46.30862,"Bus"
8582009,"Baltschieder, Kreuzmatte",7.86468,46.30606,"Bus"
8571078,"Baltschieder, Kumme",7.87046,46.30347,"Bus"
8574403,"Balzers, Alter Pfarrhof",9.50694,47.06936,"Bus"
8574406,"Balzers, Brückle",9.49489,47.06204,"Bus"
8574402,"Balzers, Egerta",9.50885,47.07229,"Bus"
8582105,"Balzers, Gagoz",9.50059,47.06967,"Bus"
8510314,"Balzers, Gemeindezentrum",9.50246,47.06646,"Bus"
8510313,"Balzers, Gnetsch",9.50266,47.06895,"Bus"
8510316,"Balzers, Haus Gutenberg",9.49858,47.06328,"Bus"
8574404,"Balzers, Höfle",9.50736,47.06702,"Bus"
8510318,"Balzers, Mariahilf",9.48996,47.06127,"Bus"
8574405,"Balzers, Mälsnerdorf",9.49782,47.06158,"Bus"
8510307,"Balzers, Oksaboda",9.51163,47.06627,"Bus"
8510308,"Balzers, Palduinstrasse",9.51318,47.06268,"Bus"
8510306,"Balzers, Pralawisch",9.51067,47.06838,"Bus"
8510305,"Balzers, Ramschwagweg",9.51096,47.07073,"Bus"
8574407,"Balzers, Rheinstrasse",9.4922,47.06349,"Bus"
8509611,"Balzers, Rietstrasse",9.50322,47.06369,"Bus"
8574401,"Balzers, Roxy",9.51157,47.07517,"Bus"
8510315,"Balzers, Schlossgarten",9.49847,47.06528,"Bus"
8574408,"Balzers, Schlossweg",9.49741,47.06663,"Bus"
8581152,"Balzers, Sportplatz",9.49272,47.07119,"Bus"
8510309,"Balzers, St. Katrinabrunna",9.51177,47.06044,"Bus"
8510312,"Balzers, Stadel",9.50505,47.06903,"Bus"
8510317,"Balzers, Unterm Stein",9.49356,47.0608,"Bus"
8510310,"Balzers, Wingerta",9.51035,47.06338,"Bus"
8507544,"Banco, Cruséta",8.84652,46.0076,"Bus"
8505785,"Banco, Paese",8.84386,46.00993,"Bus"
8530377,"Bannalpsee",8.42547,46.87018,"Kabinenbahn"
8508155,"Bannwil",7.74036,47.24438,"Zug"
8577045,"Barbengo, Baldoria",8.92299,45.96201,"Bus"
8575299,"Barbengo, Campagnore",8.90176,45.96001,"Bus"
8575298,"Barbengo, Casaccia",8.9,45.96504,"Bus"
8575300,"Barbengo, Cà Rosa",8.90558,45.95432,"Bus"
8575263,"Barbengo, La Cava",8.91517,45.95384,"Bus"
8575267,"Barbengo, Scuole",8.91524,45.9583,"Bus"
8577046,"Barbengo, Sidema",8.91999,45.96005,"Bus"
8575262,"Barbengo, Tassera",8.91173,45.95413,"Bus"
8577047,"Barbengo, Via Balconi",8.91665,45.96007,"Bus"
8592644,"Bardonnex, Charrot",6.11883,46.14778,"Bus"
8587050,"Bardonnex, Compesières",6.12234,46.15162,"Bus"
8592642,"Bardonnex, Feuillat",6.11239,46.14864,"Bus"
8587033,"Bardonnex, village",6.10427,46.14902,"Bus"
8504403,"Bargen BE",7.26119,47.04016,"Zug"
8581021,"Bargen BE, Bahnhof",7.26065,47.04041,"Bus"
8585176,"Bargen BE, Gemeindeverwaltung",7.26254,47.03861,"Bus"
8503951,"Bargen SH, Dorf",8.61115,47.79214,"Bus"
8573477,"Bargen SH, Schinderwies",8.61403,47.79195,"Bus"
8575661,"Barico, Bivio per Barico",8.84382,45.98143,"Bus"
8575685,"Barico, Paese",8.84427,45.98569,"Bus"
8578657,"Barmelweid",7.97153,47.42164,"Bus"
8595529,"Barzheim, Dorf",8.71948,47.75989,"Bus"
8595530,"Barzheim, Junkholz",8.71637,47.7571,"Bus"
8573333,"Basadingen, Grüt",8.75044,47.673,"Bus"
8506975,"Basadingen, Unterdorf",8.74882,47.66931,"Bus"
8500090,"Basel Bad Bf",7.60693,47.56731,"Zug"
8500136,"Basel Dreispitz",7.6096,47.53744,"Zug"
8500682,"Basel EuroAirport",7.53238,47.59955,"Bus"
8594925,"Basel EuroAirport, Cargo",7.5441,47.59198,"Bus"
8578148,"Basel EuroAirport, Verwaltung",7.53636,47.59661,"Bus"
8530764,"Basel Museum Tinguely",7.60633,47.55744,"Schiff"
8530637,"Basel Rheinhafen/Dreiländereck",7.58912,47.58778,"Schiff"
8500010,"Basel SBB",7.58958,47.54741,"Zug"
8500872,"Basel Schifflände",7.58847,47.55992,"Schiff"
8530638,"Basel St. Alban-Tal",7.60097,47.55514,"Schiff"
8500038,"Basel St. Jakob",7.61954,47.54261,"Zug"
8500016,"Basel St. Johann",7.57254,47.5703,"Zug"
8500073,"Basel, Aeschenplatz",7.59486,47.5513,"Bus_Tram"
8589291,"Basel, Airolostrasse",7.59028,47.53237,"Tram"
8589292,"Basel, Allmendstrasse",7.62611,47.56236,"Bus"
8589293,"Basel, Allschwilerplatz",7.57059,47.55724,"Bus_Tram"
8578170,"Basel, Bachgraben",7.55735,47.56372,"Bus"
8592321,"Basel, Badischer Bahnhof",7.60711,47.56663,"Bus_Tram"
8578143,"Basel, Bahnhof SBB",7.59031,47.54828,"Bus_Tram"
8592322,"Basel, Bahnhof St. Johann",7.57294,47.5704,"Bus_Tram"
8500237,"Basel, Bankverein",7.59226,47.55361,"Tram"
8500897,"Basel, Barfüsserplatz",7.58907,47.55459,"Tram"
8588066,"Basel, Bedrettostrasse",7.59089,47.52662,"Bus"
8589294,"Basel, Belforterstrasse",7.55899,47.5653,"Bus"
8589295,"Basel, Bernerring",7.56988,47.54905,"Tram"
8588486,"Basel, Bernoullianum",7.58043,47.56098,"Bus"
8588942,"Basel, Bethesda-Spital",7.61769,47.54894,"Bus"
8500146,"Basel, Bhfeingang Gundeldingen",7.58747,47.54554,"Bus_Tram"
8589296,"Basel, Birmannsgasse",7.57523,47.55732,"Tram"
8589297,"Basel, Blotzheimerstrasse",7.5686,47.56141,"Bus"
8588766,"Basel, Bläsiring",7.59042,47.56861,"Tram"
8581062,"Basel, Brausebad",7.57588,47.55553,"Bus_Tram"
8578306,"Basel, Breite",7.61476,47.55549,"Bus_Tram"
8589298,"Basel, Brombacherstrasse",7.59444,47.57081,"Bus_Tram"
8589299,"Basel, Bruderholz",7.59374,47.53242,"Tram"
8589300,"Basel, Bruderholzstrasse",7.59182,47.5405,"Bus_Tram"
8589301,"Basel, Bundesplatz",7.5747,47.55134,"Tram"
8596011,"Basel, Burgfelderhof",7.55727,47.57196,"Tram"
8589303,"Basel, Burgfelderplatz",7.57383,47.56204,"Tram"
8589304,"Basel, Buschweilerweg",7.56438,47.56109,"Bus"
8588767,"Basel, Ciba",7.59026,47.57341,"Bus_Tram"
8500898,"Basel, Claraplatz",7.59359,47.56177,"Bus_Tram"
8589305,"Basel, Clarastrasse",7.59682,47.56268,"Tram"
8500236,"Basel, Denkmal",7.59804,47.54817,"Tram"
8589306,"Basel, Drei Linden",7.62505,47.56872,"Bus"
8510767,"Basel, Dreiländereck",7.58865,47.5867,"Bus"
8588768,"Basel, Dreirosenbrücke",7.58983,47.57073,"Bus_Tram"
8500096,"Basel, Dreispitz",7.60883,47.53717,"Bus_Tram"
8589307,"Basel, Eglisee",7.61622,47.57004,"Bus_Tram"
8588947,"Basel, Emanuel-Büchel-Strasse",7.61437,47.55076,"Bus"
8589308,"Basel, Ensisheimerstrasse",7.56609,47.56314,"Bus"
8589309,"Basel, Erasmusplatz",7.58914,47.56592,"Bus"
8589358,"Basel, Erlenmatt",7.60285,47.56921,"Bus"
8589310,"Basel, Falkensteinerstrasse",7.60123,47.53953,"Bus"
8588769,"Basel, Feldbergstrasse",7.59121,47.56631,"Bus_Tram"
8578168,"Basel, Felix Platter-Spital",7.56499,47.56627,"Bus_Tram"
8589312,"Basel, Forellenweg",7.62071,47.55061,"Bus"
8578146,"Basel, Friedrich-Miescher-Str.",7.56485,47.57387,"Bus"
8589313,"Basel, Frobenstrasse",7.58554,47.54486,"Bus"
8588953,"Basel, Gellertstrasse",7.611,47.55134,"Bus"
8588064,"Basel, Gempenfluh",7.60116,47.53015,"Bus"
8589315,"Basel, General Guisan-Strasse",7.56578,47.54967,"Bus"
8589316,"Basel, Gewerbeschule",7.60285,47.56446,"Tram"
8589317,"Basel, Grellingerstrasse",7.60643,47.54951,"Tram"
8507520,"Basel, Grosspeteranlage",7.60159,47.54518,"Bus"
8588770,"Basel, Grosspeterstrasse",7.59858,47.54587,"Tram"
8589319,"Basel, Hammerstrasse",7.59521,47.567,"Bus"
8589320,"Basel, Hardstrasse",7.60035,47.55233,"Tram"
8589321,"Basel, Hauensteinstrasse",7.59701,47.5334,"Tram"
8589322,"Basel, Hechtliacker",7.60173,47.53465,"Tram"
8589323,"Basel, Hegenheimerstrasse",7.5744,47.56025,"Tram"
8500147,"Basel, Heiliggeistkirche",7.59801,47.54191,"Bus_Tram"
8500079,"Basel, Heuwaage",7.58806,47.55127,"Bus_Tram"
8588951,"Basel, Hirzbodenweg",7.60545,47.54723,"Bus"
8589324,"Basel, Hirzbrunnen/Claraspital",7.61165,47.56747,"Tram"
8589325,"Basel, Hochbergerstrasse",7.59755,47.57643,"Bus"
8589326,"Basel, Hoffmann-La Roche",7.60668,47.55899,"Bus"
8589327,"Basel, Holbeinstrasse",7.58408,47.55263,"Bus_Tram"
8589328,"Basel, Holee",7.56939,47.54543,"Bus"
8588771,"Basel, Hüningerstrasse",7.57604,47.57286,"Tram"
8500160,"Basel, IWB",7.58438,47.54667,"Bus_Tram"
8589329,"Basel, Im Heimatland",7.61585,47.56436,"Bus"
8578145,"Basel, Im Wasenboden",7.56984,47.56866,"Bus"
8589311,"Basel, Im Westfeld",7.56764,47.56496,"Tram"
8589330,"Basel, Im langen Loh",7.55974,47.54618,"Tram"
8589331,"Basel, Inselstrasse",7.58947,47.57706,"Bus_Tram"
8588950,"Basel, J. Burckhardt-Strasse",7.60148,47.54933,"Bus"
8588063,"Basel, Jakobsberg",7.60146,47.53241,"Bus_Tram"
8510055,"Basel, Jakobsbergerholzweg",7.60493,47.5339,"Bus"
8588772,"Basel, Johanniterbrücke",7.58391,47.56425,"Bus_Tram"
8578144,"Basel, Kannenfeldplatz",7.57331,47.56573,"Bus_Tram"
8588952,"Basel, Karl Barth-Platz",7.60933,47.54801,"Bus_Tram"
8588774,"Basel, Kaserne",7.59159,47.5637,"Tram"
8588485,"Basel, Kinderspital",7.5827,47.56343,"Bus"
8589333,"Basel, Kirschgarten",7.59105,47.55157,"Bus_Tram"
8589334,"Basel, Kleinhüningen",7.59246,47.58105,"Bus_Tram"
8589374,"Basel, Kleinhüningeranlage",7.59383,47.58371,"Tram"
8589335,"Basel, Kunsteisbahn",7.58671,47.54212,"Bus"
8589336,"Basel, Kunstmuseum",7.59409,47.55446,"Tram"
8589332,"Basel, Käferholzstrasse",7.61892,47.56582,"Bus"
8589337,"Basel, Lange Erlen",7.60477,47.5732,"Bus"
8589338,"Basel, Laupenring",7.56785,47.5481,"Tram"
8588946,"Basel, Leimgrubenweg",7.60404,47.53692,"Bus_Tram"
8589339,"Basel, Lerchenstrasse",7.5878,47.53551,"Bus_Tram"
8588776,"Basel, MParc",7.60659,47.53879,"Bus_Tram"
8589340,"Basel, Margarethen",7.58173,47.54414,"Bus_Tram"
8500193,"Basel, Markthalle",7.58601,47.54887,"Bus_Tram"
8588775,"Basel, Marktplatz",7.58761,47.55811,"Bus_Tram"
8589341,"Basel, Mattenstrasse",7.60028,47.56814,"Bus"
8500899,"Basel, Messeplatz",7.59963,47.56345,"Tram"
8588488,"Basel, Metzerstrasse",7.57828,47.56413,"Bus"
8592442,"Basel, Morgartenring",7.56499,47.55713,"Bus_Tram"
8589344,"Basel, Musical Theater",7.59759,47.56907,"Bus_Tram"
8589345,"Basel, Musik-Akademie",7.58694,47.55554,"Tram"
8589343,"Basel, Mönchsbergerstrasse",7.59964,47.5382,"Bus_Tram"
8588777,"Basel, Mülhauserstrasse",7.58006,47.56843,"Tram"
8588778,"Basel, Münchensteinerstrasse",7.59951,47.54311,"Bus_Tram"
8589346,"Basel, Nasenweg",7.61709,47.55221,"Bus"
8589347,"Basel, Neubad",7.56495,47.54694,"Bus_Tram"
8578157,"Basel, Neuweilerstrasse",7.55686,47.54557,"Bus_Tram"
8589348,"Basel, Novartis Campus",7.58136,47.57076,"Bus_Tram"
8592324,"Basel, Otterbach Grenze",7.60397,47.58004,"Bus"
8589350,"Basel, Peter Rot-Strasse",7.60419,47.56082,"Bus"
8588071,"Basel, Peter-Merian",7.59617,47.54533,"Tram"
8589351,"Basel, Pilgerstrasse",7.5772,47.56007,"Tram"
8589353,"Basel, Rankstrasse",7.61627,47.56092,"Bus"
8588948,"Basel, Redingstrasse",7.6207,47.54739,"Bus"
8588779,"Basel, Rheingasse",7.59154,47.56093,"Bus_Tram"
8592325,"Basel, Rheinhafen",7.58774,47.58285,"Bus"
8589352,"Basel, Riehenring",7.59775,47.56733,"Bus_Tram"
8589354,"Basel, Rigistrasse",7.56556,47.5524,"Bus"
8589355,"Basel, Rosengartenweg",7.60328,47.55877,"Bus"
8589356,"Basel, Rütimeyerplatz",7.57579,47.54917,"Bus"
8588780,"Basel, Schifflände",7.58717,47.5592,"Bus_Tram"
8589359,"Basel, Schorenweg",7.61126,47.57193,"Bus"
8589360,"Basel, Schützenhaus",7.57711,47.5532,"Bus_Tram"
8589361,"Basel, Schützenmattstrasse",7.57946,47.55466,"Bus_Tram"
8589362,"Basel, Sevogelplatz",7.60413,47.55064,"Tram"
8596016,"Basel, Signalstrasse",7.60288,47.57143,"Bus"
8500189,"Basel, Solothurnerstrasse",7.59098,47.54417,"Bus_Tram"
8580373,"Basel, Spalentor",7.58122,47.55797,"Bus_Tram"
8588065,"Basel, Spitzacker",7.59796,47.52731,"Bus"
8589363,"Basel, Sportzentrum Rankhof",7.62121,47.561,"Bus"
8500138,"Basel, St-Louis Grenze",7.57296,47.57595,"Tram"
8589364,"Basel, St. Alban-Tor",7.60447,47.5527,"Tram"
8589365,"Basel, St. Galler-Ring",7.56803,47.55262,"Bus"
8588943,"Basel, St. Jakob",7.61845,47.54099,"Bus_Tram"
8588781,"Basel, St. Johanns-Tor",7.58159,47.5666,"Tram"
8588487,"Basel, Steinenschanze",7.58631,47.5529,"Bus"
8589366,"Basel, Strassburgerallee",7.57087,47.56338,"Bus_Tram"
8589367,"Basel, Studio Basel",7.58745,47.53367,"Bus_Tram"
8594926,"Basel, Stücki",7.5949,47.57949,"Bus"
8589368,"Basel, Surinam",7.60883,47.56957,"Bus"
8589369,"Basel, Synagoge",7.5824,47.55426,"Bus"
8500161,"Basel, Tellplatz",7.5942,47.54286,"Bus_Tram"
8500994,"Basel, Theater",7.58979,47.55312,"Bus_Tram"
8589370,"Basel, Thiersteinerschule",7.59685,47.54082,"Bus"
8578169,"Basel, Thomaskirche",7.56341,47.56405,"Bus"
8589371,"Basel, Tinguely Museum",7.61245,47.55988,"Bus"
8588949,"Basel, Ulmenweg",7.61899,47.54462,"Bus"
8588489,"Basel, Universität",7.58412,47.55707,"Bus_Tram"
8588773,"Basel, Universitätsspital",7.58588,47.56156,"Bus_Tram"
8588782,"Basel, Voltaplatz",7.57788,47.57079,"Bus_Tram"
8589372,"Basel, Waldenburgerstrasse",7.6099,47.55412,"Tram"
8589302,"Basel, Waldighoferstrasse",7.56131,47.56853,"Tram"
8589373,"Basel, Wanderstrasse",7.56143,47.55185,"Bus"
8595517,"Basel, Weil am Rhein Grenze",7.59304,47.58899,"Tram"
8589375,"Basel, Wettsteinallee",7.61067,47.5623,"Bus"
8589376,"Basel, Wettsteinplatz",7.59834,47.55912,"Bus_Tram"
8589377,"Basel, Wielandplatz",7.57105,47.55296,"Bus"
8500254,"Basel, Wiesenplatz",7.5914,47.57669,"Bus_Tram"
8589378,"Basel, Winkelriedplatz",7.58899,47.54353,"Bus"
8589379,"Basel, Wolfschlucht",7.59046,47.53737,"Tram"
8589380,"Basel, Zeughaus",7.61057,47.54449,"Tram"
8588783,"Basel, Zoo",7.58319,47.54872,"Bus_Tram"
8589381,"Basel, Zoo Bachletten",7.58046,47.55088,"Tram"
8589382,"Basel, Zoo Dorenbach",7.57558,47.54438,"Bus_Tram"
8589383,"Basel, Zwinglihaus",7.59651,47.53914,"Bus_Tram"
8570861,"Basse-Nendaz, Bouillet",7.30898,46.18382,"Bus"
8570860,"Basse-Nendaz, La Poya",7.30818,46.18901,"Bus"
8582615,"Basse-Nendaz, Le Jaheux",7.3061,46.19382,"Bus"
8570862,"Basse-Nendaz, Saclentz",7.31911,46.17622,"Bus"
8501742,"Basse-Nendaz, village",7.31322,46.18932,"Bus"
8500122,"Bassecourt",7.24685,47.33669,"Zug"
8505814,"Bassecourt, Centre commercial",7.25212,47.33791,"Bus"
8505033,"Bassecourt, Claire-Fontaine",7.25174,47.3396,"Bus"
8582973,"Bassecourt, Colonel-Hoffmeyer",7.24296,47.33829,"Bus"
8505023,"Bassecourt, Combe",7.23844,47.33396,"Bus"
8505030,"Bassecourt, EFEJ",7.24703,47.3406,"Bus"
8505022,"Bassecourt, Eglise",7.24443,47.33611,"Bus"
8505025,"Bassecourt, Etangs",7.23652,47.33808,"Bus"
8505029,"Bassecourt, Fougères",7.24648,47.34187,"Bus"
8505028,"Bassecourt, Halle des Fêtes",7.24283,47.34143,"Bus"
8582972,"Bassecourt, Jura Centre",7.25279,47.33691,"Bus"
8505024,"Bassecourt, Paddock",7.23671,47.33515,"Bus"
8505026,"Bassecourt, Pâquerettes",7.23814,47.33883,"Bus"
8505031,"Bassecourt, Vieux-Moulin",7.2479,47.33919,"Bus"
8572027,"Bassecourt, bif. sur Glovelier",7.22274,47.33188,"Bus"
8572026,"Bassecourt, garage St-Hubert",7.23659,47.33648,"Bus"
8572021,"Bassecourt, gare",7.24741,47.33682,"Bus"
8505815,"Bassecourt, rue du Nord",7.24957,47.34181,"Bus"
8505027,"Bassecourt, stade",7.24026,47.34081,"Bus"
8581963,"Bassecourt, école secondaire",7.23819,47.33843,"Bus"
8503307,"Bassersdorf",8.62622,47.43857,"Zug"
8503700,"Bassersdorf, Bahnhof",8.62613,47.43871,"Bus"
8510517,"Bassersdorf, Bahnhof Süd",8.62721,47.43804,"Bus"
8588317,"Bassersdorf, Bächli",8.63574,47.43892,"Bus"
8590503,"Bassersdorf, Chlupfgasse",8.62462,47.44462,"Bus"
8588316,"Bassersdorf, Dietlikonerstr.",8.62966,47.44176,"Bus"
8576161,"Bassersdorf, Gemeindehaus",8.62907,47.44355,"Bus"
8588315,"Bassersdorf, Grindel",8.60841,47.44652,"Bus"
8576160,"Bassersdorf, Löwen",8.62813,47.44358,"Bus"
8576163,"Bassersdorf, Rietli",8.63619,47.44468,"Bus"
8576159,"Bassersdorf, Schmitte",8.62876,47.44294,"Bus"
8596100,"Bassersdorf, Sportanlage",8.61071,47.44446,"Bus"
8576158,"Bassersdorf, Talgüetli",8.62048,47.4451,"Bus"
8501064,"Bassins",6.2223,46.46058,"Zug"
8582137,"Bassins, Piscine",6.23283,46.46697,"Bus"
8501850,"Bassins, Tillette",6.23198,46.46315,"Bus"
8582136,"Bassins, gare",6.22276,46.46072,"Bus"
8508474,"Bauen (See)",8.58046,46.93518,"Schiff"
8510835,"Bauen, Dorf",8.57978,46.93486,"Bus"
8504295,"Baulmes",6.52428,46.78875,"Zug"
8584515,"Baulmes, Cul de Villars",6.50615,46.77112,"Bus"
8579110,"Baulmes, gare",6.52403,46.78879,"Bus"
8579109,"Baulmes, poste",6.5223,46.7898,"Bus"
8503134,"Bauma",8.87823,47.36883,"Zug"
8573278,"Bauma, Bahnhof",8.87878,47.36846,"Bus"
8575993,"Bauma, Dorfmitti",8.8767,47.36678,"Bus"
8575992,"Bauma, Giesserei",8.87175,47.36353,"Bus"
8587931,"Bauma, Holderbaum",8.8846,47.36576,"Bus"
8573279,"Bauma, Hörnen",8.88709,47.3697,"Bus"
8587932,"Bauma, Lipperschwändi",8.9201,47.35961,"Bus"
8573281,"Bauma, Musterplatz",8.89931,47.38079,"Bus"
8573280,"Bauma, Schindlet",8.89545,47.37724,"Bus"
8573548,"Bauma, Widen",8.86592,47.37019,"Bus"
8502256,"Baumgarten (See)",8.47589,47.1056,"Schiff"
8501113,"Bavois",6.55933,46.68769,"Zug"
8506205,"Bazenheid",9.06905,47.41013,"Zug"
8580479,"Bazenheid, Bahnhof",9.06874,47.40983,"Bus"
8510935,"Bazenheid, Bhf/Wilerstrasse",9.06958,47.41097,"Bus"
8580480,"Bazenheid, Hochhaus",9.06853,47.41285,"Bus"
8582464,"Bazenheid, Ifang",9.06623,47.41549,"Bus"
8587778,"Bazenheid, Ochsen",9.06361,47.41755,"Bus"
8585402,"Bazenheid, altes Zeughaus",9.07129,47.40841,"Bus"
8507192,"Beatenberg",7.76529,46.69059,"Kabinenbahn_Standseilbahn"
8507194,"Beatenberg Vorsass",7.77022,46.70053,"Kabinenbahn"
8581020,"Beatenberg, Altersheim",7.76962,46.68977,"Bus"
8504110,"Beatenberg, Bhendenchehr",7.80851,46.69172,"Bus"
8571315,"Beatenberg, Firnelicht",7.78003,46.69026,"Bus"
8507946,"Beatenberg, Hohlen",7.81106,46.69008,"Bus"
8507798,"Beatenberg, Hohlenweg",7.81109,46.6953,"Bus"
8571316,"Beatenberg, Hubel",7.77247,46.68971,"Bus"
8507981,"Beatenberg, Mättli",7.80097,46.70097,"Bus"
8507772,"Beatenberg, Parkplatz Lood",7.78617,46.69225,"Bus"
8570512,"Beatenberg, Ramsern",7.81117,46.70042,"Bus"
8581645,"Beatenberg, Schorren",7.80591,46.70297,"Bus"
8507751,"Beatenberg, Station",7.76569,46.69064,"Bus"
8507947,"Beatenberg, Tourist-Center",7.7971,46.6997,"Bus"
8507775,"Beatenberg, Waldegg",7.80961,46.70372,"Bus"
8571314,"Beatenberg, Wydi",7.79444,46.69807,"Bus"
8507750,"Beatenberg, bei den Kirchen",7.79079,46.69582,"Bus"
8507178,"Beatenbucht",7.74675,46.68607,"Bus"
8507190,"Beatenbucht (Beatenbergbahn)",7.74709,46.6855,"Standseilbahn"
8507156,"Beatenbucht (See)",7.74602,46.6866,"Schiff"
8507186,"Beatushöhlen",7.78208,46.68361,"Bus"
8507157,"Beatushöhlen-Sundlauenen",7.78992,46.685,"Schiff"
8501252,"Beau-Site",6.83512,46.47385,"Standseilbahn"
8510445,"Beau-Site, route de Châtel",6.83864,46.47364,"Bus"
8508500,"Beckenried (Klewenalpbahn)",8.47322,46.96634,"Kabinenbahn"
8508467,"Beckenried (See)",8.47561,46.96697,"Schiff"
8530721,"Beckenried Niederdorf (Fähre)",8.45945,46.97207,"Schiff"
8530976,"Beckenried Stafel",8.47672,46.92795,"Sesselbahn"
8572947,"Beckenried, Boden",8.47907,46.96395,"Bus"
8572948,"Beckenried, Fellerwil",8.48498,46.96196,"Bus"
8580610,"Beckenried, Hungacher",8.46683,46.97025,"Bus"
8572960,"Beckenried, Höfe",8.47497,46.96267,"Bus"
8508728,"Beckenried, Nidwaldnerhof",8.46994,46.96961,"Bus"
8508887,"Beckenried, Niederdorf",8.46225,46.97102,"Bus"
8508797,"Beckenried, Post",8.47525,46.96685,"Bus"
8575325,"Bedano, Casa per Anziani",8.92345,46.05527,"Bus"
8505910,"Bedano, Paese",8.91882,46.05062,"Bus"
8575324,"Bedano, S. Rocco",8.92144,46.05351,"Bus"
8575323,"Bedano, Via Mara",8.92075,46.04732,"Bus"
8575853,"Bedigliora, Feredino",8.84818,46.00246,"Bus"
8575847,"Bedigliora, Nerocco",8.83739,46.01339,"Bus"
8505777,"Bedigliora, Paese",8.84366,46.00286,"Bus"
8582392,"Bedigliora, Scuola Media",8.84678,46.00606,"Bus"
8510183,"Bedretto, Bivio per Ronco",8.49682,46.49708,"Bus"
8505868,"Bedretto, Paese",8.51115,46.50584,"Bus"
8504664,"Beffeux",6.89388,46.3087,"Bus"
8503491,"Beggingen, Dorf",8.53537,47.76665,"Bus"
8578362,"Beggingen, Neumühle",8.53184,47.76542,"Bus"
8570025,"Begnins, Bellevue",6.24625,46.44294,"Bus"
8570027,"Begnins, Bois-du-Four",6.24684,46.44875,"Bus"
8570013,"Begnins, Charbonnier",6.2497,46.43743,"Bus"
8581113,"Begnins, Grange-Grèche",6.25381,46.45314,"Bus"
8570026,"Begnins, La Chataigneraie",6.24531,46.44469,"Bus"
